상가업소번호,상호명,지점명,상권업종대분류코드,상권업종대분류명,상권업종중분류코드,상권업종중분류명,상권업종소분류코드,상권업종소분류명,표준산업분류코드,표준산업분류명,시도코드,시도명,시군구코드,시군구명,행정동코드,행정동명,법정동코드,법정동명,PNU코드,대지구분코드,대지구분명,지번본번지,지번부번지,지번주소,도로명코드,도로명,건물본번지,건물부번지,건물관리번호,건물명,도로명주소,구우편번호,신우편번호,동정보,층정보,호정보,경도,위도
11927910,흥부네대박닭강정난곡점,,Q,음식,Q05,닭/오리요리,Q05A08,후라이드/양념치킨,I56193,치킨 전문점,11,서울특별시,11620,관악구,1162071500,난향동,1162010200,신림동,1162010200106670017,1,대지,667,17,서울특별시 관악구 신림동 667-17,116203120003,서울특별시 관악구 난곡로,87,,1162010200106680000009515,,서울특별시 관악구 난곡로 87,151015,08859,,1,,126.918787821105,37.4632057701891
11928045,또봉이통닭동산남부점,동산남부점,Q,음식,Q05,닭/오리요리,Q05A08,후라이드/양념치킨,I56193,치킨 전문점,45,전라북도,45140,익산시,4514057000,동산동,4514011100,동산동,4514011100106090031,1,대지,609,31,전라북도 익산시 동산동 609-31,451404608304,전라북도 익산시 평동로12길,21,,4514011100106090031083264,,전라북도 익산시 평동로12길 21,570959,54676,,1,,126.958748004124,35.9271437349077
11928103,원조옛날통닭,,Q,음식,Q05,닭/오리요리,Q05A08,후라이드/양념치킨,I56193,치킨 전문점,44,충청남도,44150,공주시,4415051000,중학동,4415010400,중동,4415010400100010003,1,대지,1,3,충청남도 공주시 중동 1-3,441503251013,충청남도 공주시 무령로,274,,4415010400100010003753599,,충청남도 공주시 무령로 274,314050,32562,,1,,127.13010082465,36.4556887869483
11928271,해피오네치킨,,Q,음식,Q05,닭/오리요리,Q05A08,후라이드/양념치킨,I56193,치킨 전문점,41,경기도,41465,용인시 수지구,4146556000,동천동,4146510300,동천동,4146510300108830007,1,대지,883,7,경기도 용인시 수지구 동천동 883-7,414654415048,경기도 용인시 수지구 문인로54번길,7,,4146510300108830007027115,,경기도 용인시 수지구 문인로54번길 7,448504,16828,,1,,127.096606428907,37.3337548197113
11928279,옛날통닭,,Q,음식,Q05,닭/오리요리,Q05A08,후라이드/양념치킨,I56193,치킨 전문점,41,경기도,41287,고양시 일산서구,4128751000,일산1동,4128710100,일산동,4128710100109660074,1,대지,966,74,경기도 고양시 일산서구 일산동 966-74,412873194019,경기도 고양시 일산서구 원일로,23,,4128710100109660074003593,,경기도 고양시 일산서구 원일로 23,411310,10348,,1,,126.765010126455,37.6873508803679
11928346,깐부치킨,죽전새터내대지점,Q,음식,Q05,닭/오리요리,Q05A08,후라이드/양념치킨,I56193,치킨 전문점,41,경기도,41465,용인시 수지구,4146554000,죽전1동,4146510200,죽전동,4146510200111880001,1,대지,1188,1,경기도 용인시 수지구 죽전동 1188-1,414653205022,경기도 용인시 수지구 현암로,153,,4146510200111880001027753,건영타운,경기도 용인시 수지구 현암로 153,448160,16876,,,,127.126407658862,37.3319421591449
11928400,치킨조이,,Q,음식,Q05,닭/오리요리,Q05A08,후라이드/양념치킨,I56193,치킨 전문점,29,광주광역시,29200,광산구,2920070000,신창동,2920011800,신창동,2920011800112220006,1,대지,1222,6,광주광역시 광산구 신창동 1222-6,292004289396,광주광역시 광산구 신창로72번길,10,15,2920011800112220006045682,,광주광역시 광산구 신창로72번길 10-15,506841,62252,,1,,126.838083458264,35.1913314770652
11928583,호식이두마리치킨개포1호점,개포1호점,Q,음식,Q05,닭/오리요리,Q05A08,후라이드/양념치킨,I56193,치킨 전문점,11,서울특별시,11680,강남구,1168069000,개포4동,1168010300,개포동,1168010300111770000,1,대지,1177,,서울특별시 강남구 개포동 1177,116804166204,서울특별시 강남구 논현로8길,50,,1168010300101770000020970,,서울특별시 강남구 논현로8길 50,135240,06314,,1,,127.052776969964,37.4746188698975
11928677,쌀민족쌀통닭,,Q,음식,Q05,닭/오리요리,Q05A08,후라이드/양념치킨,I56193,치킨 전문점,41,경기도,41465,용인시 수지구,4146558000,상현2동,4146510700,상현동,4146510700100660009,1,대지,66,9,경기도 용인시 수지구 상현동 66-9,414653205005,경기도 용인시 수지구 만현로,88,,4146510700100660009027439,상현종합상가,경기도 용인시 수지구 만현로 88,448130,16930,,1,,127.085113399254,37.3090578604047
11928764,치킨하우스,,Q,음식,Q05,닭/오리요리,Q05A08,후라이드/양념치킨,I56193,치킨 전문점,41,경기도,41133,성남시 중원구,4113357000,상대원1동,4113310500,상대원동,4113310500100710001,1,대지,71,1,경기도 성남시 중원구 상대원동 71-1,411333179014,경기도 성남시 중원구 순환로,234,,4113310500100710001059804,,경기도 성남시 중원구 순환로 234,462120,13205,,1,,127.179412355416,37.4447225427694
11928772,그집마늘치킨,장천점,Q,음식,Q05,닭/오리요리,Q05A08,후라이드/양념치킨,I56193,치킨 전문점,47,경상북도,47190,구미시,4719036000,장천면,4719036021,장천면,4719036021107070008,1,대지,707,8,경상북도 구미시 장천면 상장리 707-8,471903305003,경상북도 구미시 장천면 강동로,163,,4719036021107070008073516,,경상북도 구미시 장천면 강동로 163,730843,39454,,,,128.49549782398,36.1242725804201
11929020,호식이두마리치킨,송림점,Q,음식,Q05,닭/오리요리,Q05A08,후라이드/양념치킨,I56193,치킨 전문점,28,인천광역시,28140,동구,2814058000,송림1동,2814010700,송림동,2814010700102270007,1,대지,227,7,인천광역시 동구 송림동 227-7,281403150037,인천광역시 동구 송림로,59,,2814010700102270007032241,,인천광역시 동구 송림로 59,401070,22542,,,,126.641338632853,37.4749560193084
11929050,수동착한통닭,,Q,음식,Q05,닭/오리요리,Q05A08,후라이드/양념치킨,I56193,치킨 전문점,41,경기도,41360,남양주시,4136034000,수동면,4136034021,수동면,4136034021100900004,1,대지,90,4,경기도 남양주시 수동면 운수리 90-4,413603197032,경기도 남양주시 수동면 비룡로,750,,4136034021100890002000001,,경기도 남양주시 수동면 비룡로 750,472852,12031,,1,,127.32639474784,37.705328407085
11929066,BHC치킨,산호야구장점,Q,음식,Q05,닭/오리요리,Q05A08,후라이드/양념치킨,I56193,치킨 전문점,48,경상남도,48125,창원시 마산합포구,4812565000,산호동,4812511800,산호동,4812511800100260057,1,대지,26,57,경상남도 창원시 마산합포구 산호동 26-57,481254787330,경상남도 창원시 마산합포구 산호북15길,35,,4812511800100260057020643,,경상남도 창원시 마산합포구 산호북15길 35,631852,51328,,1,,128.583095740912,35.2191910321841
11929081,훌리네다리치킨,,Q,음식,Q05,닭/오리요리,Q05A08,후라이드/양념치킨,I56193,치킨 전문점,41,경기도,41250,동두천시,4125056500,불현동,4125010200,지행동,4125010200102860000,1,대지,286,,경기도 동두천시 지행동 286,412503189026,경기도 동두천시 지행로,104,,4125010200102860000008995,,경기도 동두천시 지행로 104,483020,11363,,1,,127.05892159358,37.8923492308577
11929447,치킨스토리,,Q,음식,Q05,닭/오리요리,Q05A08,후라이드/양념치킨,I56193,치킨 전문점,26,부산광역시,26470,연제구,2647067000,연산3동,2647010200,연산동,2647010200118110244,1,대지,1811,244,부산광역시 연제구 연산동 1811-244,264704211128,부산광역시 연제구 금련로12번길,17,,2647010200118110244003480,,부산광역시 연제구 금련로12번길 17,611080,47614,,,,129.095243237613,35.1728524844134
11929512,닭킬러숯불바베큐,,Q,음식,Q05,닭/오리요리,Q05A08,후라이드/양념치킨,I56193,치킨 전문점,28,인천광역시,28177,미추홀구,2817757000,용현5동,2817710200,용현동,2817710200106270364,1,대지,627,364,인천광역시 미추홀구 용현동 627-364,281774253116,인천광역시 미추홀구 낙섬서로18번길,5,,2817010200106270364000001,,인천광역시 미추홀구 낙섬서로18번길 5,402834,22190,5,1,,126.634783602233,37.4512194784295
11929749,BBQ치킨,대전전민점,Q,음식,Q05,닭/오리요리,Q05A08,후라이드/양념치킨,I56193,치킨 전문점,30,대전광역시,30200,유성구,3020057000,전민동,3020014100,전민동,3020014100103270023,1,대지,327,23,대전광역시 유성구 전민동 327-23,302004301384,대전광역시 유성구 전민로10번길,58,,3020014100103270023002680,,대전광역시 유성구 전민로10번길 58,305810,34052,,2,,127.40413006205,36.3989350130297
11929942,둘둘치킨상계점,상계점,Q,음식,Q05,닭/오리요리,Q05A08,후라이드/양념치킨,I56193,치킨 전문점,11,서울특별시,11350,노원구,1135062400,중계4동,1135010600,중계동,1135010600101420045,1,대지,142,45,서울특별시 노원구 중계동 142-45,113504130392,서울특별시 노원구 한글비석로20길,25,,1135010600101420045009854,,서울특별시 노원구 한글비석로20길 25,139220,01662,,1,,127.073826035809,37.6603925969997
11930077,노량통닭신천점,신천점,Q,음식,Q05,닭/오리요리,Q05A08,후라이드/양념치킨,I56193,치킨 전문점,11,서울특별시,11710,송파구,1171065000,잠실본동,1171010100,잠실동,1171010100101920012,1,대지,192,12,서울특별시 송파구 잠실동 192-12,117104169204,서울특별시 송파구 백제고분로7길,20,,1171010100101920012000564,,서울특별시 송파구 백제고분로7길 20,138220,05561,,1,,127.080997635039,37.5104966627785
11930113,BBQ치킨봉천1점,봉천1점,Q,음식,Q05,닭/오리요리,Q05A08,후라이드/양념치킨,I56193,치킨 전문점,11,서울특별시,11620,관악구,1162057500,행운동,1162010100,봉천동,1162010100100360010,1,대지,36,10,서울특별시 관악구 봉천동 36-10,116204160016,서울특별시 관악구 관악로28길,11,,1162010100100360010031478,,서울특별시 관악구 관악로28길 11,151050,08735,,1,,126.956777794322,37.4853527633028
11930382,맥칸백암치킨,,Q,음식,Q05,닭/오리요리,Q05A08,후라이드/양념치킨,I56193,치킨 전문점,45,전라북도,45140,익산시,4514040000,금마면,4514040021,금마면,4514040021108610001,1,대지,861,1,전라북도 익산시 금마면 동고도리 861-1,451404607150,전라북도 익산시 금마면 금마길,48,,4514040021108610001048934,이리상회,전라북도 익산시 금마면 금마길 48,570912,54572,,1,,127.052199890453,35.9908636476035
11930429,BHC치킨동부점,동부점,Q,음식,Q05,닭/오리요리,Q05A08,후라이드/양념치킨,I56193,치킨 전문점,48,경상남도,48310,거제시,4831032000,동부면,4831032022,동부면,4831032022103960000,1,대지,396,,경상남도 거제시 동부면 산양리 396,483103337003,경상남도 거제시 동부면 거제남서로,3084,,4831032022103960000000001,,경상남도 거제시 동부면 거제남서로 3084,656853,53331,,1,,128.607469899259,34.8235340183046
11930722,교촌치킨모현점,모현점,Q,음식,Q05,닭/오리요리,Q05A08,후라이드/양념치킨,I56193,치킨 전문점,45,전라북도,45140,익산시,4514061000,모현동,4514011400,모현동1가,4514011400108570000,1,대지,857,,전라북도 익산시 모현동1가 857,451403269014,전라북도 익산시 배산로,165,5,4514011400108570000000001,근린생활시설,전라북도 익산시 배산로 165-5,570091,54654,,1,,126.941081276468,35.9523151330823
11930958,내가찜한닭예술대점,예술대점,Q,음식,Q05,닭/오리요리,Q05A08,후라이드/양념치킨,I56193,치킨 전문점,41,경기도,41273,안산시 단원구,4127353200,중앙동,4127310100,고잔동,4127310100106390000,1,대지,639,,경기도 안산시 단원구 고잔동 639,412734373262,경기도 안산시 단원구 예술대학로5길,3,,4127310100106390000027552,,경기도 안산시 단원구 예술대학로5길 3,425805,15262,,1,,126.838589866167,37.3312690720275
11931004,KFC창원대동백화점점,창원대동백화점점,Q,음식,Q05,닭/오리요리,Q05A08,후라이드/양념치킨,I56193,치킨 전문점,48,경상남도,48123,창원시 성산구,4812353000,상남동,4812312700,상남동,4812312700100440001,1,대지,44,1,경상남도 창원시 성산구 상남동 44-1,481233328009,경상남도 창원시 성산구 동산로,115,,4812312700100440001022226,대동아파트,경상남도 창원시 성산구 동산로 115,642777,51498,,1,,128.687645103894,35.2190660291484
11931139,치킨678거제대명점,거제대명점,Q,음식,Q05,닭/오리요리,Q05A08,후라이드/양념치킨,I56193,치킨 전문점,48,경상남도,48310,거제시,4831031000,일운면,4831031025,일운면,4831031025101030000,1,대지,103,,경상남도 거제시 일운면 소동리 103,483104811337,경상남도 거제시 일운면 소동6길,15,,4831031025101000002000001,캔들하우스,경상남도 거제시 일운면 소동6길 15,656892,53326,,1,,128.700756252427,34.8436310945705
11931826,고수쌀치킨,,Q,음식,Q05,닭/오리요리,Q05A08,후라이드/양념치킨,I56193,치킨 전문점,45,전라북도,45130,군산시,4513033000,임피면,4513033026,임피면,4513033026107910003,1,대지,791,3,전라북도 군산시 임피면 월하리 791-3,451304605116,전라북도 군산시 임피면 호원대3길,62,,4513033026107910003001024,해피하우스,전라북도 군산시 임피면 호원대3길 62,573932,54058,,1,,126.866606578903,35.962954874984
11931837,쭈노치킨호원대점,호원대점,Q,음식,Q05,닭/오리요리,Q05A08,후라이드/양념치킨,I56193,치킨 전문점,45,전라북도,45130,군산시,4513033000,임피면,4513033026,임피면,4513033026108970004,1,대지,897,4,전라북도 군산시 임피면 월하리 897-4,451304605116,전라북도 군산시 임피면 호원대3길,47,,4513033026108970004005653,술이있는곳주유소,전라북도 군산시 임피면 호원대3길 47,573932,54058,,1,,126.867410572883,35.9617727917398
11931972,예형님,,Q,음식,Q05,닭/오리요리,Q05A08,후라이드/양념치킨,I56193,치킨 전문점,26,부산광역시,26380,사하구,2638059000,장림2동,2638010500,장림동,2638010500105720003,1,대지,572,3,부산광역시 사하구 장림동 572-3,263803134024,부산광역시 사하구 장평로,79,,2638010500105720003000001,,부산광역시 사하구 장평로 79,604040,49484,,1,,128.972807668347,35.0732557363092
11932199,BBQ치킨,군산CC점,Q,음식,Q05,닭/오리요리,Q05A08,후라이드/양념치킨,I56193,치킨 전문점,45,전라북도,45130,군산시,4513040000,옥서면,4513040021,옥서면,4513040021117270001,1,대지,1727,1,전라북도 군산시 옥서면 옥봉리 1727-1,451303268015,전라북도 군산시 옥서면 남군산로,1911,7,4513040021017270001208101,,전라북도 군산시 옥서면 남군산로 1911-7,573952,54170,,,,126.637990092452,35.895868198355
11932212,BBQ치킨,거제옥포점,Q,음식,Q05,닭/오리요리,Q05A08,후라이드/양념치킨,I56193,치킨 전문점,48,경상남도,48310,거제시,4831056000,옥포2동,4831010600,옥포동,4831010600108730005,1,대지,873,5,경상남도 거제시 옥포동 873-5,483104811323,경상남도 거제시 성산로1길,2,,4831010600108730005042445,,경상남도 거제시 성산로1길 2,656130,53220,,1,,128.695848351569,34.897053004934
11932215,오븐에빠진닭성수점,성수점,Q,음식,Q05,닭/오리요리,Q05A08,후라이드/양념치킨,I56193,치킨 전문점,11,서울특별시,11200,성동구,1120069000,성수2가3동,1120011500,성수동2가,1120011500102890015,1,대지,289,15,서울특별시 성동구 성수동2가 289-15,112004109397,서울특별시 성동구 아차산로7길,8,,1120011500102890015004249,,서울특별시 성동구 아차산로7길 8,133120,04794,,2,,127.054467852317,37.5458518163005
11932223,파파이스진천점,진천점,Q,음식,Q05,닭/오리요리,Q05A08,후라이드/양념치킨,I56193,치킨 전문점,43,충청북도,43750,진천군,4375025000,진천읍,4375025026,진천읍,4375025026105690000,1,대지,569,,충청북도 진천군 진천읍 벽암리 569,437504535372,충청북도 진천군 진천읍 중앙북1길,3,,4375025026105690000023656,진천터미널,충청북도 진천군 진천읍 중앙북1길 3,365806,27831,,1,,127.438389086327,36.8596370830689
11932232,BBQ치킨신림5점,신림5점,Q,음식,Q05,닭/오리요리,Q05A08,후라이드/양념치킨,I56193,치킨 전문점,11,서울특별시,11620,관악구,1162068500,신사동,1162010200,신림동,1162010200105250030,1,대지,525,30,서울특별시 관악구 신림동 525-30,116204160026,서울특별시 관악구 관천로11길,152,,1162010200105250030015473,,서울특별시 관악구 관천로11길 152,151875,08761,,1,,126.916501848878,37.4829628940701
11932236,BBQ치킨,진주일반성점,Q,음식,Q05,닭/오리요리,Q05A08,후라이드/양념치킨,I56193,치킨 전문점,48,경상남도,48170,진주시,4817036000,일반성면,4817036021,일반성면,4817036021106450005,1,대지,645,5,경상남도 진주시 일반성면 창촌리 645-5,481703332019,경상남도 진주시 일반성면 동부로,1992,1,4817036021106450005039353,통큰웰빙ZONE,경상남도 진주시 일반성면 동부로 1992-1,660863,52616,1,,,128.279794066934,35.1695390756292
11932239,BBQ치킨,충북송계계곡점,Q,음식,Q05,닭/오리요리,Q05A08,후라이드/양념치킨,I56193,치킨 전문점,43,충청북도,43150,제천시,4315035000,한수면,4315035030,한수면,4315035030107160000,1,대지,716,,충청북도 제천시 한수면 송계리 716,431503014004,충청북도 제천시 한수면 미륵송계로,1597,,4315035030107280003010641,,충청북도 제천시 한수면 미륵송계로 1597,390862,27226,,,,128.078547565667,36.8826473521309
11932279,굽네치킨구미봉곡점,구미봉곡점,Q,음식,Q05,닭/오리요리,Q05A08,후라이드/양념치킨,I56193,치킨 전문점,47,경상북도,47190,구미시,4719056500,선주원남동,4719010400,봉곡동,4719010400102730002,1,대지,273,2,경상북도 구미시 봉곡동 273-2,471904724315,경상북도 구미시 봉곡남로9길,7,,4719010400102730002024455,,경상북도 구미시 봉곡남로9길 7,730808,39208,,1,,128.309385039718,36.1502601670136
11932285,굽네치킨,이태원점,Q,음식,Q05,닭/오리요리,Q05A08,후라이드/양념치킨,I56193,치킨 전문점,11,서울특별시,11170,용산구,1117065000,이태원1동,1117013000,이태원동,1117013000101370026,1,대지,137,26,서울특별시 용산구 이태원동 137-26,111704106221,서울특별시 용산구 우사단로12길,18,,1117013000101370026009548,,서울특별시 용산구 우사단로12길 18,140200,04405,,,,126.996647059931,37.5335439085673
11932312,맘스터치순천역점,순천역점,Q,음식,Q05,닭/오리요리,Q05A08,후라이드/양념치킨,I56193,치킨 전문점,46,전라남도,46150,순천시,4615056000,조곡동,4615011100,조곡동,4615011100101590004,1,대지,159,4,전라남도 순천시 조곡동 159-4,461503283029,전라남도 순천시 팔마로,124,1,4615011100101590004014320,,전라남도 순천시 팔마로 124-1,540963,57962,,1,,127.501732428859,34.9449989556735
11932323,맘스터치울산삼호초등학교점,울산삼호초등학교점,Q,음식,Q05,닭/오리요리,Q05A08,후라이드/양념치킨,I56193,치킨 전문점,31,울산광역시,31140,남구,3114058500,삼호동,3114010100,무거동,3114010100102960001,1,대지,296,1,울산광역시 남구 무거동 296-1,311404310033,울산광역시 남구 굴화4길,27,,3114010100102960001034137,,울산광역시 남구 굴화4길 27,680806,44629,,1,,129.26416568523,35.552420406754
11932424,또봉이통닭일동식물원점,일동식물원점,Q,음식,Q05,닭/오리요리,Q05A08,후라이드/양념치킨,I56193,치킨 전문점,41,경기도,41271,안산시 상록구,4127151000,일동,4127110100,일동,4127110100105750001,1,대지,575,1,경기도 안산시 상록구 일동 575-1,412713190095,경기도 안산시 상록구 호동로,66,,4127110100105750001018988,,경기도 안산시 상록구 호동로 66,426859,15322,,1,,126.864438473076,37.315733272329
11932474,멕시칸양념통닭전포점,전포점,Q,음식,Q05,닭/오리요리,Q05A08,후라이드/양념치킨,I56193,치킨 전문점,26,부산광역시,26230,부산진구,2623061000,전포2동,2623010200,전포동,2623010200101910323,1,대지,191,323,부산광역시 부산진구 전포동 191-323,262304187730,부산광역시 부산진구 진남로356번길,105,,2623010200101910323031241,,부산광역시 부산진구 진남로356번길 105,614040,47232,,1,,129.071101593714,35.160187504903
11932757,호식이두마리치킨구좌세화점,구좌세화점,Q,음식,Q05,닭/오리요리,Q05A08,후라이드/양념치킨,I56193,치킨 전문점,50,제주특별자치도,50110,제주시,5011025600,구좌읍,5011025628,구좌읍,5011025628115350003,1,대지,1535,3,제주특별자치도 제주시 구좌읍 세화리 1535-3,501103349023,제주특별자치도 제주시 구좌읍 구좌로,22,,5011025628015350003054926,,제주특별자치도 제주시 구좌읍 구좌로 22,695973,63361,,1,,126.853999115386,33.5234148385505
11933102,페리카나백석점,백석점,Q,음식,Q05,닭/오리요리,Q05A08,후라이드/양념치킨,I56193,치킨 전문점,44,충청남도,44133,천안시 서북구,4413356000,백석동,4413310300,백석동,4413310300108500000,1,대지,850,,충청남도 천안시 서북구 백석동 850,441334550207,충청남도 천안시 서북구 백석5길,23,1,4413310300108500000049286,금화루,충청남도 천안시 서북구 백석5길 23-1,331980,31159,,1,,127.126144370365,36.8226695679835
11933116,처갓집양념치킨대연1호점,대연1호점,Q,음식,Q05,닭/오리요리,Q05A08,후라이드/양념치킨,I56193,치킨 전문점,26,부산광역시,26290,남구,2629055000,대연5동,2629010600,대연동,2629010600102900011,1,대지,290,11,부산광역시 남구 대연동 290-11,262903129046,부산광역시 남구 진남로,18,,2629010600102900011000842,,부산광역시 남구 진남로 18,608020,48444,,1,,129.091706329638,35.1365494055119
11933187,항아리스모프치킨,,Q,음식,Q05,닭/오리요리,Q05A08,후라이드/양념치킨,I56193,치킨 전문점,44,충청남도,44131,천안시 동남구,4413159000,신안동,4413111900,안서동,4413111900103150006,1,대지,315,6,충청남도 천안시 동남구 안서동 315-6,441314547665,충청남도 천안시 동남구 중암1길,4,,4413111900103150006002304,성경홈타운,충청남도 천안시 동남구 중암1길 4,330997,31066,,1,,127.174766370367,36.8313437145836
11933316,네네치킨화명2점,화명2점,Q,음식,Q05,닭/오리요리,Q05A08,후라이드/양념치킨,I56193,치킨 전문점,26,부산광역시,26320,북구,2632054300,화명3동,2632010200,화명동,2632010200123220000,1,대지,2322,,부산광역시 북구 화명동 2322,263204196379,부산광역시 북구 학사로17번길,31,,2632010200123220000004102,수정강변타운아파트,부산광역시 북구 학사로17번길 31,616790,46542,,1,,129.006030979904,35.221336934249
11933406,멕시칸치킨유진회관점,유진회관점,Q,음식,Q05,닭/오리요리,Q05A08,후라이드/양념치킨,I56193,치킨 전문점,46,전라남도,46710,담양군,4671025000,담양읍,4671025032,담양읍,4671025032103090003,1,대지,309,3,전라남도 담양군 담양읍 오계리 309-3,467103286006,전라남도 담양군 담양읍 무정로,220,,4671025032103090003002726,,전라남도 담양군 담양읍 무정로 220,517803,57362,,1,,126.997189899151,35.2973862866696
11933620,땡초화끈이,,Q,음식,Q05,닭/오리요리,Q05A08,후라이드/양념치킨,I56193,치킨 전문점,45,전라북도,45210,김제시,4521051000,요촌동,4521010100,요촌동,4521010100105990003,1,대지,599,3,전라북도 김제시 요촌동 599-3,452104616697,전라북도 김제시 요촌길,105,,4521010100105990003055316,,전라북도 김제시 요촌길 105,576807,54379,,1,,126.892650873322,35.8052213120509
11933705,멕시카나치킨호남본부,호남본부,Q,음식,Q05,닭/오리요리,Q05A08,후라이드/양념치킨,I56193,치킨 전문점,45,전라북도,45210,김제시,4521042000,금구면,4521042021,금구면,4521042021107000000,1,대지,700,,전라북도 김제시 금구면 금구리 700,452103272006,전라북도 김제시 금구면 금백로,2,8,4521042021107000000000001,,전라북도 김제시 금구면 금백로 2-8,576941,54349,,1,,127.005542164352,35.7792410857359
11933840,김성주의성마늘치킨송현점,송현점,Q,음식,Q05,닭/오리요리,Q05A08,후라이드/양념치킨,I56193,치킨 전문점,47,경상북도,47170,안동시,4717066000,송하동,4717013600,송현동,4717013600103070010,1,대지,307,10,경상북도 안동시 송현동 307-10,471704721698,경상북도 안동시 송하2길,68,7,4717013600103070010024290,,경상북도 안동시 송하2길 68-7,760300,36641,,1,,128.695780368516,36.5706458249682
11933856,용천통닭담양점,담양점,Q,음식,Q05,닭/오리요리,Q05A08,후라이드/양념치킨,I56193,치킨 전문점,46,전라남도,46710,담양군,4671025000,담양읍,4671025023,담양읍,4671025023101250005,1,대지,125,5,전라남도 담양군 담양읍 지침리 125-5,467104658139,전라남도 담양군 담양읍 미리산길,64,,4671025023101250005000001,A동,전라남도 담양군 담양읍 미리산길 64,517804,57346,,1,,126.986428025284,35.3139810318644
11934010,멕시카나치킨현진점,현진점,Q,음식,Q05,닭/오리요리,Q05A08,후라이드/양념치킨,I56193,치킨 전문점,47,경상북도,47170,안동시,4717069000,강남동,4717014000,정하동,4717014000102400002,1,대지,240,2,경상북도 안동시 정하동 240-2,471704721050,경상북도 안동시 강남5길,92,,4717014000102400002015876,현진에버빌1차아파트,경상북도 안동시 강남5길 92,760703,36749,,1,,128.731701978811,36.5506311672864
11934031,두존두마리치킨,,Q,음식,Q05,닭/오리요리,Q05A08,후라이드/양념치킨,I56193,치킨 전문점,47,경상북도,47850,칠곡군,4785025300,북삼읍,4785025325,북삼읍,4785025325110340005,1,대지,1034,5,경상북도 칠곡군 북삼읍 인평리 1034-5,478504724100,경상북도 칠곡군 북삼읍 금오대로10길,28,,4785025325110340005030397,대성그린원룸14차,경상북도 칠곡군 북삼읍 금오대로10길 28,718844,39813,,1,,128.350508046496,36.0688319591085
11934060,꼬닭,,Q,음식,Q05,닭/오리요리,Q05A08,후라이드/양념치킨,I56193,치킨 전문점,47,경상북도,47170,안동시,4717060000,태화동,4717012200,태화동,4717012200102270027,1,대지,227,27,경상북도 안동시 태화동 227-27,471703307039,경상북도 안동시 태화중앙로,80,,4717012200102270027025150,,경상북도 안동시 태화중앙로 80,760904,36676,,1,,128.71306294982,36.559521894764
11934066,햇살다이어트하가점,하가점,Q,음식,Q05,닭/오리요리,Q05A08,후라이드/양념치킨,I56193,치킨 전문점,45,전라북도,45113,전주시 덕진구,4511357000,덕진동,4511310600,덕진동2가,4511310600106930002,1,대지,693,2,전라북도 전주시 덕진구 덕진동2가 693-2,451133267001,전라북도 전주시 덕진구 가련산로,11,,4511310600106930002000001,,전라북도 전주시 덕진구 가련산로 11,561852,54891,,1,,127.110073233613,35.8410968892396
11934102,페리카나치킨,,Q,음식,Q05,닭/오리요리,Q05A08,후라이드/양념치킨,I56193,치킨 전문점,42,강원도,42820,고성군,4282032000,죽왕면,4282032021,죽왕면,4282032021101760001,1,대지,176,1,강원도 고성군 죽왕면 오호리 176-1,428202000023,강원도 고성군 죽왕면 동해대로,5902,,4282032021101760001009698,"페리카나,비비큐썬구이송지호점",강원도 고성군 죽왕면 동해대로 5902,219822,24747,,1,,128.524560313039,38.3291000283899
11934283,BBQ치킨,울산전하점,Q,음식,Q05,닭/오리요리,Q05A08,후라이드/양념치킨,I56193,치킨 전문점,31,울산광역시,31170,동구,3117056000,전하2동,3117010400,전하동,3117010400106340005,1,대지,634,5,울산광역시 동구 전하동 634-5,311704313226,울산광역시 동구 진성3길,46,,3117010400106340005007670,,울산광역시 동구 진성3길 46,682060,44043,,1,,129.427113186331,35.5103768939672
11934297,BBQ치킨김해관동점,김해관동점,Q,음식,Q05,닭/오리요리,Q05A08,후라이드/양념치킨,I56193,치킨 전문점,48,경상남도,48250,김해시,4825063000,장유3동,4825013000,관동동,4825013000104440004,1,대지,444,4,경상남도 김해시 관동동 444-4,482503335062,경상남도 김해시 팔판로,26,,4825031028104440004094449,중원프라자,경상남도 김해시 팔판로 26,621300,50997,,1,,128.79062392694,35.1771437664613
11934305,BBQ치킨,거제상동점,Q,음식,Q05,닭/오리요리,Q05A08,후라이드/양념치킨,I56193,치킨 전문점,48,경상남도,48310,거제시,4831059000,상문동,4831011000,상동동,4831011000109310018,1,대지,931,18,경상남도 거제시 상동동 931-18,483104811295,경상남도 거제시 상동5길,117,46,4831011000109310018000001,하임힐,경상남도 거제시 상동5길 117-46,656300,53295,,,,128.633802245521,34.8603420475808
11934306,BBQ치킨,파라다이스도고점,Q,음식,Q05,닭/오리요리,Q05A08,후라이드/양념치킨,I56193,치킨 전문점,44,충청남도,44200,아산시,4420040000,도고면,4420040036,도고면,4420040036101800001,1,대지,180,1,충청남도 아산시 도고면 기곡리 180-1,442003253013,충청남도 아산시 도고면 도고온천로,176,,4420040036101800001015115,,충청남도 아산시 도고면 도고온천로 176,336912,31547,,3,,126.887993803156,36.7655035668597
11934372,BBQ치킨,만리포해수욕장점,Q,음식,Q05,닭/오리요리,Q05A08,후라이드/양념치킨,I56193,치킨 전문점,44,충청남도,44825,태안군,4482534000,소원면,4482534026,소원면,4482534026111320000,1,대지,1132,,충청남도 태안군 소원면 의항리 1132,448254592100,충청남도 태안군 소원면 만리포2길,206,,4482534026109790005005927,,충청남도 태안군 소원면 만리포2길 206,357934,32123,,2,,126.14681252162,36.7911738622242
11934427,썬더치킨신호1호점,신호1호점,Q,음식,Q05,닭/오리요리,Q05A08,후라이드/양념치킨,I56193,치킨 전문점,26,부산광역시,26440,강서구,2644056000,녹산동,2644011700,신호동,2644011700102320019,1,대지,232,19,부산광역시 강서구 신호동 232-19,264403136060,부산광역시 강서구 신호산단5로,53,,2644011700102320019000001,,부산광역시 강서구 신호산단5로 53,618290,46759,,1,,128.878862632611,35.0834828620775
11934553,BBQ치킨김해워터파크점,김해워터파크점,Q,음식,Q05,닭/오리요리,Q05A08,후라이드/양념치킨,I56193,치킨 전문점,48,경상남도,48250,김해시,4825061000,장유1동,4825012700,신문동,4825012700114170000,1,대지,1417,,경상남도 김해시 신문동 1417,482503335054,경상남도 김해시 장유로,555,,4825012700114170000000001,,경상남도 김해시 장유로 555,621260,51011,,1,,128.828584384879,35.1789272338983
11934574,BBQ치킨경주IC휴게소점,경주IC휴게소점,Q,음식,Q05,닭/오리요리,Q05A08,후라이드/양념치킨,I56193,치킨 전문점,47,경상북도,47130,경주시,4713057000,황남동,4713014200,율동,4713014200100640004,1,대지,64,4,경상북도 경주시 율동 64-4,471302305001,경상북도 경주시 서라벌대로,420,,4713014200100640004038154,,경상북도 경주시 서라벌대로 420,780310,38189,,1,,129.193630966548,35.8125251842942
11934669,BHC치킨포동점,포동점,Q,음식,Q05,닭/오리요리,Q05A08,후라이드/양념치킨,I56193,치킨 전문점,41,경기도,41390,시흥시,4139053100,신현동,4139010400,포동,4139010400100200026,1,대지,20,26,경기도 시흥시 포동 20-26,413904397439,경기도 시흥시 신현로38번길,7,,4139010400100200026009882,,경기도 시흥시 신현로38번길 7,429871,14957,,1,,126.784874891663,37.4063551331678
11934680,굿앤닭용원점,용원점,Q,음식,Q05,닭/오리요리,Q05A08,후라이드/양념치킨,I56193,치킨 전문점,48,경상남도,48129,창원시 진해구,4812965000,웅동2동,4812916400,용원동,4812916400112210002,1,대지,1221,2,경상남도 창원시 진해구 용원동 1221-2,481294793306,경상남도 창원시 진해구 용원중로37번길,13,,4812916400112210002028924,소스와꼬꼬,경상남도 창원시 진해구 용원중로37번길 13,645510,51604,,1,,128.815234527903,35.1008289778322
11934776,신통치킨하상점,하상점,Q,음식,Q05,닭/오리요리,Q05A08,후라이드/양념치킨,I56193,치킨 전문점,41,경기도,41390,시흥시,4139063000,연성동,4139012000,하상동,4139012000103750010,1,대지,375,10,경기도 시흥시 하상동 375-10,413904397633,경기도 시흥시 하상로4번길,7,,4139012000103750010010288,,경기도 시흥시 하상로4번길 7,429270,14977,,1,,126.813294277698,37.3912808560597
11934894,처갓집,,Q,음식,Q05,닭/오리요리,Q05A08,후라이드/양념치킨,I56193,치킨 전문점,42,강원도,42210,속초시,4221059000,청호동,4221010800,조양동,4221010800114900312,1,대지,1490,312,강원도 속초시 조양동 1490-312,422104469127,강원도 속초시 새마을길,5,,4221010800114900312010089,,강원도 속초시 새마을길 5,217812,24887,,1,,128.601754652231,38.1867020007069
11935212,교촌치킨미아역점,미아역점,Q,음식,Q05,닭/오리요리,Q05A08,후라이드/양념치킨,I56193,치킨 전문점,11,서울특별시,11305,강북구,1130554500,송중동,1130510100,미아동,1130510100101310008,1,대지,131,8,서울특별시 강북구 미아동 131-8,113053005039,서울특별시 강북구 도봉로,142,,1130510100101310008019716,,서울특별시 강북구 도봉로 142,142809,01161,,1,,127.028362013999,37.6215346915105
11937072,비에이치씨티건설,,Q,음식,Q05,닭/오리요리,Q05A08,후라이드/양념치킨,I56193,치킨 전문점,41,경기도,41590,화성시,4159052000,진안동,4159011600,진안동,4159011600109140002,1,대지,914,2,경기도 화성시 진안동 914-2,415903012007,경기도 화성시 효행로,1059,,4159011600009140003023776,미래프라자,경기도 화성시 효행로 1059,445390,18398,,1,,127.042639518085,37.2147380340138
11938241,둘리치킨,,Q,음식,Q05,닭/오리요리,Q05A08,후라이드/양념치킨,I56193,치킨 전문점,28,인천광역시,28110,중구,2811062800,운서동,2811014700,운서동,2811014700127870002,1,대지,2787,2,인천광역시 중구 운서동 2787-2,281103149060,인천광역시 중구 흰바위로,15,,2811014700127870002222974,영종풍림아이원아파트,인천광역시 중구 흰바위로 15,400833,22370,802,1,,126.485748702531,37.4932018221267
11938759,멕시칸치킨,,Q,음식,Q05,닭/오리요리,Q05A08,후라이드/양념치킨,I56193,치킨 전문점,29,광주광역시,29170,북구,2917066900,일곡동,2917012700,일곡동,2917012700108490001,1,대지,849,1,광주광역시 북구 일곡동 849-1,291703162062,광주광역시 북구 일곡택지로,60,,2917012700108490001014596,한일아파트,광주광역시 북구 일곡택지로 60,500867,61038,102,2,,126.895468311773,35.2073992734747
11939076,멕시칸치킨반월체인점,반월체인점,Q,음식,Q05,닭/오리요리,Q05A08,후라이드/양념치킨,I56193,치킨 전문점,45,전라북도,45113,전주시 덕진구,4511365000,조촌동,4511312300,반월동,4511312300103860007,1,대지,386,7,전라북도 전주시 덕진구 반월동 386-7,451133267064,전라북도 전주시 덕진구 쪽구름로,133,,4511312300103860007013042,반월동한강아파트,전라북도 전주시 덕진구 쪽구름로 133,561370,54808,,1,,127.071070256774,35.8738434545483
11939087,꾸꾸루꾸유진바베큐치킨,,Q,음식,Q05,닭/오리요리,Q05A08,후라이드/양념치킨,I56193,치킨 전문점,43,충청북도,43113,청주시 흥덕구,4311376000,강서1동,4311313800,비하동,4311313800103000000,1,대지,300,,충청북도 청주시 흥덕구 비하동 300,431134511051,충청북도 청주시 흥덕구 2순환로1050번길,13,14,4311313800103000000008785,효성아파트,충청북도 청주시 흥덕구 2순환로1050번길 13-14,361773,28361,102,1,,127.420930730859,36.6401494758016
11939230,바비큐보스치킨상동점,치킨상동점,Q,음식,Q05,닭/오리요리,Q05A08,후라이드/양념치킨,I56193,치킨 전문점,41,경기도,41190,부천시,4119074200,신중동,4119010800,중동,4119010800110280000,1,대지,1028,,경기도 부천시 중동 1028,411903184001,경기도 부천시 계남로,123,,4119510800110280000001189,한라뜨란채2단지아파트,경기도 부천시 계남로 123,420731,14511,115,1,,126.763934699728,37.5106587044436
11939811,또래오래서교,,Q,음식,Q05,닭/오리요리,Q05A08,후라이드/양념치킨,I56193,치킨 전문점,46,전라남도,46130,여수시,4613071000,문수동,4613012000,문수동,4613012000100020013,1,대지,2,13,전라남도 여수시 문수동 2-13,461303282027,전라남도 여수시 문수로,148,1,4613012000100020013054683,,전라남도 여수시 문수로 148-1,550816,59714,,1,,127.709681000585,34.7572181294705
11939812,또래오래인후점,인후점,Q,음식,Q05,닭/오리요리,Q05A08,후라이드/양념치킨,I56193,치킨 전문점,45,전라북도,45113,전주시 덕진구,4511356000,인후3동,4511310300,인후동1가,4511310300108900001,1,대지,890,1,전라북도 전주시 덕진구 인후동1가 890-1,451133267022,전라북도 전주시 덕진구 무삼지로,40,,4511310300108900001029266,부영2차아파트,전라북도 전주시 덕진구 무삼지로 40,561789,55021,208,1,,127.164646454568,35.8293840037663
11939910,두배로치킨,,Q,음식,Q05,닭/오리요리,Q05A08,후라이드/양념치킨,I56193,치킨 전문점,45,전라북도,45140,익산시,4514065200,어양동,4514012300,어양동,4514012300106060001,1,대지,606,1,전라북도 익산시 어양동 606-1,451403269039,전라북도 익산시 하나로,357,,4514012300106060001063519,쌍용아파트(상가),전라북도 익산시 하나로 357,570733,54640,119,1,,126.983528100386,35.9520512355751
11940196,궁숯불바베큐치킨체인점,,Q,음식,Q05,닭/오리요리,Q05A08,후라이드/양념치킨,I56193,치킨 전문점,45,전라북도,45140,익산시,4514064700,영등2동,4514012200,영등동,4514012200108100000,1,대지,810,,전라북도 익산시 영등동 810,451404607065,전라북도 익산시 고봉로36길,21,,4514012200108100000065364,제일4차아파트,전라북도 익산시 고봉로36길 21,570770,54542,605,1,,126.973757372308,35.964441785363
11940359,새나라치킨,,Q,음식,Q05,닭/오리요리,Q05A08,후라이드/양념치킨,I56193,치킨 전문점,41,경기도,41281,고양시 덕양구,4128162200,화정2동,4128112300,화정동,4128112300109870000,1,대지,987,,경기도 고양시 덕양구 화정동 987,412813192027,경기도 고양시 덕양구 백양로,64,,4128112300109870000012772,옥빛마을13단지아파트,경기도 고양시 덕양구 백양로 64,412744,10499,,1,,126.834342793811,37.63139169418
11940574,빠담빠담,,Q,음식,Q05,닭/오리요리,Q05A08,후라이드/양념치킨,I56193,치킨 전문점,46,전라남도,46110,목포시,4611064500,삼학동,4611010200,산정동,4611010200113940000,1,대지,1394,,전라남도 목포시 산정동 1394,461103281008,전라남도 목포시 남해로,80,,4611010200113940000004932,동화에이스빌,전라남도 목포시 남해로 80,530350,58745,101,1,,126.404678825598,34.7898037033174
11940715,낙원치킨,,Q,음식,Q05,닭/오리요리,Q05A08,후라이드/양념치킨,I56193,치킨 전문점,43,충청북도,43130,충주시,4313063000,연수동,4313011800,연수동,4313011800104640003,1,대지,464,3,충청북도 충주시 연수동 464-3,431304514371,충청북도 충주시 동수5길,34,,4313011800104640003019485,낙원아파트,충청북도 충주시 동수5길 34,380961,27351,나,1,,127.937371543748,36.9847059194196
11941075,멕시칸치킨연수이,연수이,Q,음식,Q05,닭/오리요리,Q05A08,후라이드/양념치킨,I56193,치킨 전문점,43,충청북도,43130,충주시,4313063000,연수동,4313011800,연수동,4313011800104210007,1,대지,421,7,충청북도 충주시 연수동 421-7,431304514129,충청북도 충주시 국원초2길,18,,4313011800104210007019410,유원하나아파트,충청북도 충주시 국원초2길 18,380759,27372,,1,,127.942541365523,36.9813561891483
11941123,더조은치킨,,Q,음식,Q05,닭/오리요리,Q05A08,후라이드/양념치킨,I56193,치킨 전문점,29,광주광역시,29140,서구,2914083000,풍암동,2914012800,풍암동,2914012800111320000,1,대지,1132,,광주광역시 서구 풍암동 1132,291403160050,광주광역시 서구 풍암순환로,183,,2914012800111320000003134,우미광장아파트,광주광역시 서구 풍암순환로 183,502776,62059,나,1,,126.881969001691,35.1273405612424
11941132,더조은치킨,,Q,음식,Q05,닭/오리요리,Q05A08,후라이드/양념치킨,I56193,치킨 전문점,29,광주광역시,29170,북구,2917065600,문흥1동,2917011200,문흥동,2917011200109950002,1,대지,995,2,광주광역시 북구 문흥동 995-2,291704286250,광주광역시 북구 문산로62번길,20,,2917011200109950002035945,"문흥동우미,호반아파트",광주광역시 북구 문산로62번길 20,500110,61128,102,1,,126.925436064906,35.1851433309645
11941731,드림치킨랜드,,Q,음식,Q05,닭/오리요리,Q05A08,후라이드/양념치킨,I56193,치킨 전문점,46,전라남도,46790,화순군,4679025000,화순읍,4679025024,화순읍,4679025024104050003,1,대지,405,3,전라남도 화순군 화순읍 신기리 405-3,467903291004,전라남도 화순군 화순읍 광덕로,215,,4679025024104050003044850,화순부영아파트,전라남도 화순군 화순읍 광덕로 215,519756,58114,607,1,,126.990616719662,35.0636993632734
11942186,멕시카나,,Q,음식,Q05,닭/오리요리,Q05A08,후라이드/양념치킨,I56193,치킨 전문점,41,경기도,41610,광주시,4161054000,쌍령동,4161010200,쌍령동,4161010200103490000,1,대지,349,,경기도 광주시 쌍령동 349,416104433033,경기도 광주시 경충대로1422번길,26,,4161010200103490000004339,동성2차아파트,경기도 광주시 경충대로1422번길 26,464713,12792,,1,,127.278353827263,37.3978720249532
11943247,BBQ치킨안산원곡점,안산원곡점,Q,음식,Q05,닭/오리요리,Q05A08,후라이드/양념치킨,I56193,치킨 전문점,41,경기도,41390,시흥시,4139058100,군자동,4139012700,거모동,4139012700106120001,1,대지,612,1,경기도 시흥시 거모동 612-1,413904397066,경기도 시흥시 군자로335번길,11,,4139012700106120001009238,동보아파트,경기도 시흥시 군자로335번길 11,429702,15044,103,1,,126.773541256168,37.358103898416
11943309,BBQ치킨,,Q,음식,Q05,닭/오리요리,Q05A08,후라이드/양념치킨,I56193,치킨 전문점,48,경상남도,48123,창원시 성산구,4812356000,성주동,4812311000,안민동,4812311000101970000,1,대지,197,,경상남도 창원시 성산구 안민동 197,481234784155,경상남도 창원시 성산구 안민로101번길,29,,4812311000101970000022150,안민청솔마을대동아파트,경상남도 창원시 성산구 안민로101번길 29,642903,51551,108,1,,128.689634938015,35.1880820697486
11943329,BBQ치킨,,Q,음식,Q05,닭/오리요리,Q05A08,후라이드/양념치킨,I56193,치킨 전문점,46,전라남도,46130,여수시,4613076500,만덕동,4613012600,덕충동,4613012600117440001,1,대지,1744,1,전라남도 여수시 덕충동 1744-1,461304646263,전라남도 여수시 덕충3길,6,,4613012600117440001030454,여수충일교회,전라남도 여수시 덕충3길 6,550812,59725,A,1,,127.736703900571,34.7540792219639
11943330,비비큐프라자,,Q,음식,Q05,닭/오리요리,Q05A08,후라이드/양념치킨,I56193,치킨 전문점,47,경상북도,47170,안동시,4717069000,강남동,4717014000,정하동,4717014000102990001,1,대지,299,1,경상북도 안동시 정하동 299-1,471704721046,경상북도 안동시 강남1길,98,23,4717014000102990001015851,현진에버빌3차아파트,경상북도 안동시 강남1길 98-23,760400,36750,305,1,,128.731192842386,36.547570166871
11943498,멕시칸치킨구곡청솔점,구곡청솔점,Q,음식,Q05,닭/오리요리,Q05A08,후라이드/양념치킨,I56193,치킨 전문점,42,강원도,42130,원주시,4213055000,단구동,4213010700,단구동,4213010700115890002,1,대지,1589,2,강원도 원주시 단구동 1589-2,421303219012,강원도 원주시 늘품로,6,,4213010700115890002017569,청솔1차아파트,강원도 원주시 늘품로 6,220759,26489,,2,,127.949832264449,37.3209549538476
11943500,맥칸치킨,,Q,음식,Q05,닭/오리요리,Q05A08,후라이드/양념치킨,I56193,치킨 전문점,45,전라북도,45140,익산시,4514069000,삼성동,4514013400,부송동,4514013400102160002,1,대지,216,2,전라북도 익산시 부송동 216-2,451404607415,전라북도 익산시 무왕로26길,11,5,4514013400102160002057181,부송우남아파트어린이집,전라북도 익산시 무왕로26길 11-5,570775,54558,107,2,,126.999685072132,35.9603255539047
11943986,다사랑,,Q,음식,Q05,닭/오리요리,Q05A08,후라이드/양념치킨,I56193,치킨 전문점,45,전라북도,45111,전주시 완산구,4511169100,평화1동,4511113200,평화동1가,4511113200104120000,1,대지,412,,전라북도 전주시 완산구 평화동1가 412,451114598311,전라북도 전주시 완산구 장승배기3길,8,,4511113200104120000006948,효성임대아파트,전라북도 전주시 완산구 장승배기3길 8,560843,55107,2,1,,127.14265604061,35.8004411987287
11944722,꼬레랑옛날통닭,,Q,음식,Q05,닭/오리요리,Q05A08,후라이드/양념치킨,I56193,치킨 전문점,41,경기도,41150,의정부시,4115052000,의정부2동,4115010100,의정부동,4115010100105700000,1,대지,570,,경기도 의정부시 의정부동 570,411504343050,경기도 의정부시 경의로75번길,46,,4115010100105700000013053,재훈빌라,경기도 의정부시 경의로75번길 46,480010,11652,,1,,127.043988969801,37.7350568782606
11944724,MD치킨,,Q,음식,Q05,닭/오리요리,Q05A08,후라이드/양념치킨,I56193,치킨 전문점,11,서울특별시,11740,강동구,1174066000,성내3동,1174010800,성내동,1174010800104340002,1,대지,434,2,서울특별시 강동구 성내동 434-2,117403124007,서울특별시 강동구 성안로,34,,1174010800104340002004155,,서울특별시 강동구 성안로 34,134030,05406,,1,,127.130285080566,37.5266834342043
11945010,여우치킨가맥,,Q,음식,Q05,닭/오리요리,Q05A08,후라이드/양념치킨,I56193,치킨 전문점,45,전라북도,45710,완주군,4571033000,이서면,4571033026,이서면,4571033026105460036,1,대지,546,36,전라북도 완주군 이서면 상개리 546-36,457103273067,전라북도 완주군 이서면 이서로,90,4,4571033026105460036000001,,전라북도 완주군 이서면 이서로 90-4,565853,55366,,1,,127.026343283997,35.8203756790308
11945122,두곡옛날통닭,,Q,음식,Q05,닭/오리요리,Q05A08,후라이드/양념치킨,I56193,치킨 전문점,47,경상북도,47250,상주시,4725044000,은척면,4725044026,은척면,4725044026103600004,1,대지,360,4,경상북도 상주시 은척면 두곡리 360-4,472503018045,경상북도 상주시 은척면 무운로,772,,4725044026103600004004902,,경상북도 상주시 은척면 무운로 772,742932,37106,,,,128.078228599121,36.5687841468686
11945856,삼오닭,,Q,음식,Q05,닭/오리요리,Q05A08,후라이드/양념치킨,I56193,치킨 전문점,41,경기도,41271,안산시 상록구,4127155000,본오2동,4127110400,본오동,4127110400108710010,1,대지,871,10,경기도 안산시 상록구 본오동 871-10,412713190036,경기도 안산시 상록구 샘골로,124,,4127110400108710010018132,로스코프라자,경기도 안산시 상록구 샘골로 124,426180,15541,,,,126.863264596095,37.2947901176554
11945964,한국통닭,,Q,음식,Q05,닭/오리요리,Q05A08,후라이드/양념치킨,I56193,치킨 전문점,11,서울특별시,11230,동대문구,1123057000,전농2동,1123010400,전농동,1123010400102950100,1,대지,295,100,서울특별시 동대문구 전농동 295-100,112303105013,서울특별시 동대문구 전농로,150,1,1123010400102950100026416,,서울특별시 동대문구 전농로 150-1,130020,02506,,1,,127.057544500693,37.5783141282971
11946080,교촌치킨,메트로시티1호점,Q,음식,Q05,닭/오리요리,Q05A08,후라이드/양념치킨,I56193,치킨 전문점,26,부산광역시,26290,남구,2629057000,용호1동,2629010700,용호동,2629010700101760030,1,대지,176,30,부산광역시 남구 용호동 176-30,262903131015,부산광역시 남구 분포로,111,,2629010700101760030008909,엘지메트로시티아파트,부산광역시 남구 분포로 111,608776,48516,,,,129.109549620716,35.1269407709741
11946128,호식이두마리치킨,산정점,Q,음식,Q05,닭/오리요리,Q05A08,후라이드/양념치킨,I56193,치킨 전문점,46,전라남도,46110,목포시,4611069500,죽교동,4611015700,죽교동,4611015700105750056,1,대지,575,56,전라남도 목포시 죽교동 575-56,461103281052,전라남도 목포시 양을로,3,,4611015700105750056046633,,전라남도 목포시 양을로 3,530846,58717,,2,,126.377447886975,34.8000167864166
11946159,서연이네통닭,,Q,음식,Q05,닭/오리요리,Q05A08,후라이드/양념치킨,I56193,치킨 전문점,41,경기도,41550,안성시,4155039000,일죽면,4155039028,일죽면,4155039028100210006,1,대지,21,6,경기도 안성시 일죽면 송천리 21-6,415504424416,경기도 안성시 일죽면 송천길,94,,4155039028100210006001789,,경기도 안성시 일죽면 송천길 94,456915,17529,,,,127.477320971036,37.0937193647969
11946638,옛날통닭,,Q,음식,Q05,닭/오리요리,Q05A08,후라이드/양념치킨,I56193,치킨 전문점,41,경기도,41410,군포시,4141057000,재궁동,4141010500,금정동,4141010500107440007,1,대지,744,7,경기도 군포시 금정동 744-7,414103200006,경기도 군포시 금재로,2,1,4141010500107440007006317,,경기도 군포시 금재로 2-1,435050,15834,,1,,126.941439846993,37.362140554842
11946772,가마솥통닭,,Q,음식,Q05,닭/오리요리,Q05A08,후라이드/양념치킨,I56193,치킨 전문점,41,경기도,41190,부천시,4119074600,대산동,4119011100,심곡본동,4119011100106340000,1,대지,634,,경기도 부천시 심곡본동 634,411903185021,경기도 부천시 심곡로,83,,4119710200106340000016020,아남아파트,경기도 부천시 심곡로 83,422822,14748,,1,,126.775651571191,37.4767936688412
11946793,코리안숯불닭바베큐,,Q,음식,Q05,닭/오리요리,Q05A08,후라이드/양념치킨,I56193,치킨 전문점,41,경기도,41461,용인시 처인구,4146153000,유림동,4146110600,고림동,4146110600107810021,1,대지,781,21,경기도 용인시 처인구 고림동 781-21,414613203115,경기도 용인시 처인구 진덕로,38,5,4146110600107810021040373,우성하이츠빌라,경기도 용인시 처인구 진덕로 38-5,449923,17151,C,1,,127.217021741798,37.2394208838933
11947041,호또치킨,,Q,음식,Q05,닭/오리요리,Q05A08,후라이드/양념치킨,I56193,치킨 전문점,11,서울특별시,11680,강남구,1168064000,역삼1동,1168010100,역삼동,1168010100106720030,1,대지,672,30,서울특별시 강남구 역삼동 672-30,116804166623,서울특별시 강남구 언주로93길,32,3,1168010100106720030022875,,서울특별시 강남구 언주로93길 32-3,135080,06139,1,1,,127.039203191977,37.5034061831098
11947071,꼬꼬야숙성치킨먹자,,Q,음식,Q05,닭/오리요리,Q05A08,후라이드/양념치킨,I56193,치킨 전문점,41,경기도,41590,화성시,4159058700,동탄3동,4159011800,능동,4159011800111450005,1,대지,1145,5,경기도 화성시 능동 1145-5,415903210078,경기도 화성시 여울로,15,,4159011800111450005000001,,경기도 화성시 여울로 15,445320,18427,,1,,127.053077788567,37.2008008218711
11947208,쥬쥬치킨,,Q,음식,Q05,닭/오리요리,Q05A08,후라이드/양념치킨,I56193,치킨 전문점,11,서울특별시,11215,광진구,1121571000,화양동,1121510700,화양동,1121510700100340010,1,대지,34,10,서울특별시 광진구 화양동 34-10,112154112316,서울특별시 광진구 아차산로29길,51,,1121510700100340010017172,,서울특별시 광진구 아차산로29길 51,143916,05016,,1,,127.069077505404,37.5431205790486
11947337,에이에이비비큐,,Q,음식,Q05,닭/오리요리,Q05A08,후라이드/양념치킨,I56193,치킨 전문점,41,경기도,41135,성남시 분당구,4113558000,서현1동,4113510500,서현동,4113510500102490004,1,대지,249,4,경기도 성남시 분당구 서현동 249-4,411354340474,경기도 성남시 분당구 황새울로342번길,19,,4113510500102490004066808,유성그린빌딩,경기도 성남시 분당구 황새울로342번길 19,463824,13591,,3,,127.124271828104,37.386613061581
11947373,BHC치킨,마천점,Q,음식,Q05,닭/오리요리,Q05A08,후라이드/양념치킨,I56193,치킨 전문점,11,서울특별시,11710,송파구,1171055000,마천2동,1171011400,마천동,1171011400100440008,1,대지,44,8,서울특별시 송파구 마천동 44-8,117104169043,서울특별시 송파구 거마로24길,10,,1171011400100440008018422,,서울특별시 송파구 거마로24길 10,138120,05754,,1,,127.148367578013,37.4995220789379
11947507,24시치킨마트,,Q,음식,Q05,닭/오리요리,Q05A08,후라이드/양념치킨,I56193,치킨 전문점,44,충청남도,44810,예산군,4481025000,예산읍,4481025021,예산읍,4481025021103120002,1,대지,312,2,충청남도 예산군 예산읍 예산리 312-2,448103263048,충청남도 예산군 예산읍 형제고개로,974,,4481025021103120002007640,,충청남도 예산군 예산읍 형제고개로 974,340804,32438,,1,,126.850108464164,36.6772266635739
11947618,꼬꼬봉투통닭,,Q,음식,Q05,닭/오리요리,Q05A08,후라이드/양념치킨,I56193,치킨 전문점,11,서울특별시,11350,노원구,1135059500,공릉1동,1135010300,공릉동,1135010300106830014,1,대지,683,14,서울특별시 노원구 공릉동 683-14,113503005046,서울특별시 노원구 화랑로,421,,1135010300106830016016604,,서울특별시 노원구 화랑로 421,139240,01861,,1,,127.074199241351,37.6175421954261
11948047,네네치킨네네피자강제점,네네피자강제점,Q,음식,Q05,닭/오리요리,Q05A08,후라이드/양념치킨,I56193,치킨 전문점,43,충청북도,43150,제천시,4315060500,화산동,4315012100,강제동,4315012100108730000,1,대지,873,,충청북도 제천시 강제동 873,431504854038,충청북도 제천시 청풍호로10안길,9,,4315010900108730000022133,,충청북도 제천시 청풍호로10안길 9,390160,27192,,1,,128.198867114269,37.1212251894186
11948054,땡큐맘치킨,,Q,음식,Q05,닭/오리요리,Q05A08,후라이드/양념치킨,I56193,치킨 전문점,27,대구광역시,27230,북구,2723069500,무태조야동,2723011400,동변동,2723011400106970000,1,대지,697,,대구광역시 북구 동변동 697,272303145023,대구광역시 북구 동변로,50,,2723011400106970000000483,유니버시아드선수촌,대구광역시 북구 동변로 50,702734,41414,,1,,128.60425226255,35.915753565791
11948057,오빠가튀긴닭,,Q,음식,Q05,닭/오리요리,Q05A08,후라이드/양념치킨,I56193,치킨 전문점,43,충청북도,43730,옥천군,4373025000,옥천읍,4373025022,옥천읍,4373025022103520002,1,대지,352,2,충청북도 옥천군 옥천읍 문정리 352-2,437304526132,충청북도 옥천군 옥천읍 문장로3길,15,,4373025022103520002010694,,충청북도 옥천군 옥천읍 문장로3길 15,373803,29040,,1,,127.577845199221,36.301375202544
11948089,네네치킨용산1호점,용산1호점,Q,음식,Q05,닭/오리요리,Q05A08,후라이드/양념치킨,I56193,치킨 전문점,27,대구광역시,27290,달서구,2729057100,용산1동,2729011100,용산동,2729011100108840012,1,대지,884,12,대구광역시 달서구 용산동 884-12,272904241436,대구광역시 달서구 와룡로51길,65,,2729011100108840012017027,,대구광역시 달서구 와룡로51길 65,704130,42631,,1,,128.533523240055,35.855528786715
11948090,지코바양념치킨,금정점,Q,음식,Q05,닭/오리요리,Q05A08,후라이드/양념치킨,I56193,치킨 전문점,26,부산광역시,26410,금정구,2641058000,부곡2동,2641010900,부곡동,2641010900102950005,1,대지,295,5,부산광역시 금정구 부곡동 295-5,264104205149,부산광역시 금정구 동부곡로5번길,19,,2641010900102950005035123,,부산광역시 금정구 동부곡로5번길 19,609320,46271,,1,,129.092472013524,35.226617954548
11948272,옛날통닭중문점,중문점,Q,음식,Q05,닭/오리요리,Q05A08,후라이드/양념치킨,I56193,치킨 전문점,50,제주특별자치도,50130,서귀포시,5013061000,중문동,5013011200,중문동,5013011200119490005,1,대지,1949,5,제주특별자치도 서귀포시 중문동 1949-5,501303350258,제주특별자치도 서귀포시 천제연로,216,,5013011200119490005000001,중문낚시마트,제주특별자치도 서귀포시 천제연로 216,697857,63546,,1,,126.427694341097,33.2513934488553
11948316,충만치킨하복대점,하복대점,Q,음식,Q05,닭/오리요리,Q05A08,후라이드/양념치킨,I56193,치킨 전문점,43,충청북도,43113,청주시 흥덕구,4311374100,복대1동,4311311400,복대동,4311311400127500000,1,대지,2750,,충청북도 청주시 흥덕구 복대동 2750,431134511884,충청북도 청주시 흥덕구 짐대로42번길,4,2,4311311400127500000008401,,충청북도 청주시 흥덕구 짐대로42번길 4-2,361270,28417,,1,,127.427435766765,36.6330523616006
11948435,날씬한치킨,,Q,음식,Q05,닭/오리요리,Q05A08,후라이드/양념치킨,I56193,치킨 전문점,41,경기도,41131,성남시 수정구,4113162500,위례동,4113110800,창곡동,4113110800105510003,1,대지,551,3,경기도 성남시 수정구 창곡동 551-3,411314853107,경기도 성남시 수정구 위례서일로1길,8,8,4113110800105510003000002,,경기도 성남시 수정구 위례서일로1길 8-8,461210,13647,,1,,127.138440166288,37.4658313661992
11948591,사나운치킨,,Q,음식,Q05,닭/오리요리,Q05A08,후라이드/양념치킨,I56193,치킨 전문점,11,서울특별시,11500,강서구,1150056000,화곡3동,1150010300,화곡동,1150010300110060009,1,대지,1006,9,서울특별시 강서구 화곡동 1006-9,115003115001,서울특별시 강서구 강서로,243,,1150010300110060009021003,,서울특별시 강서구 강서로 243,157010,07705,,1,,126.835901640752,37.5473592858706
11948686,통큰두마리찜닭&수원왕갈비통닭신림대학동점,,Q,음식,Q05,닭/오리요리,Q05A08,후라이드/양념치킨,I56193,치킨 전문점,11,서울특별시,11620,관악구,1162073500,대학동,1162010200,신림동,1162010200115200017,1,대지,1520,17,서울특별시 관악구 신림동 1520-17,116204160767,서울특별시 관악구 호암로24길,47,,1162010200115200017005485,,서울특별시 관악구 호암로24길 47,151895,08813,,1,,126.935789310185,37.469559354641
11948899,멕시칸치킨,호성점,Q,음식,Q05,닭/오리요리,Q05A08,후라이드/양념치킨,I56193,치킨 전문점,45,전라북도,45113,전주시 덕진구,4511362000,호성동,4511311600,호성동1가,4511311600107330009,1,대지,733,9,전라북도 전주시 덕진구 호성동1가 733-9,451134601502,전라북도 전주시 덕진구 호성1길,39,3,4511311600107330009015552,,전라북도 전주시 덕진구 호성1길 39-3,561211,54905,,1,,127.152483339618,35.8564012502317
11949041,시장닭강정,,Q,음식,Q05,닭/오리요리,Q05A08,후라이드/양념치킨,I56193,치킨 전문점,30,대전광역시,30140,중구,3014060500,문창동,3014010600,문창동,3014010600103640001,1,대지,364,1,대전광역시 중구 문창동 364-1,301404295295,대전광역시 중구 문창로10번길,38,,3014010600103640001024846,,대전광역시 중구 문창로10번길 38,301810,35030,,1,,127.438054208046,36.3152110400988
11949519,옛날통닭,,Q,음식,Q05,닭/오리요리,Q05A08,후라이드/양념치킨,I56193,치킨 전문점,44,충청남도,44270,당진시,4427038000,신평면,4427038021,신평면,4427038021111520028,1,대지,1152,28,충청남도 당진시 신평면 금천리 1152-28,442704595594,충청남도 당진시 신평면 중말길,83,,4483038021111520028085115,삼거리식당,충청남도 당진시 신평면 중말길 83,343812,31748,,1,,126.757117752468,36.8845634994789
11949762,왕노가리치킨타운,,Q,음식,Q05,닭/오리요리,Q05A08,후라이드/양념치킨,I56193,치킨 전문점,11,서울특별시,11710,송파구,1171057000,오금동,1171011200,오금동,1171011200101140025,1,대지,114,25,서울특별시 송파구 오금동 114-25,117103123004,서울특별시 송파구 마천로,197,,1171011200101140025015272,,서울특별시 송파구 마천로 197,138858,05731,,1,,127.140850481321,37.5021528132242
11949981,타코하우스멕시칸그릴보산동점,산동점,Q,음식,Q05,닭/오리요리,Q05A08,후라이드/양념치킨,I56193,치킨 전문점,41,경기도,41250,동두천시,4125055000,보산동,4125010600,보산동,4125010600104180011,1,대지,418,11,경기도 동두천시 보산동 418-11,412503215066,경기도 동두천시 평화로,2555,,4125010600104180011001638,,경기도 동두천시 평화로 2555,483060,11311,,1,,127.05704002927,37.9159582979478
11950112,치킨마루,오치점,Q,음식,Q05,닭/오리요리,Q05A08,후라이드/양념치킨,I56193,치킨 전문점,29,광주광역시,29170,북구,2917067700,오치2동,2917011500,오치동,2917011500107760014,1,대지,776,14,광주광역시 북구 오치동 776-14,291704286403,광주광역시 북구 서하로194번길,3,,2917011500107760014001703,,광주광역시 북구 서하로194번길 3,500130,61120,,1,,126.901906998682,35.1867801213219
11950424,디디치킨,관산점,Q,음식,Q05,닭/오리요리,Q05A08,후라이드/양념치킨,I56193,치킨 전문점,46,전라남도,46800,장흥군,4680025300,관산읍,4680025326,관산읍,4680025326103030008,1,대지,303,8,전라남도 장흥군 관산읍 옥당리 303-8,468003292003,전라남도 장흥군 관산읍 관산로,42,,4680025326103030008043007,,전라남도 장흥군 관산읍 관산로 42,529875,59348,,,,126.940543860601,34.559321036455
11950433,교촌치킨,아미부민점,Q,음식,Q05,닭/오리요리,Q05A08,후라이드/양념치킨,I56193,치킨 전문점,26,부산광역시,26140,서구,2614059000,부민동,2614010900,부민동1가,2614010900100110003,1,대지,11,3,부산광역시 서구 부민동1가 11-3,261402006003,부산광역시 서구 보수대로,99,,2614010900100110003007899,,부산광역시 서구 보수대로 99,602816,49223,,1,,129.021091566788,35.104606358013
11950503,삐오옛날통닭,,Q,음식,Q05,닭/오리요리,Q05A08,후라이드/양념치킨,I56193,치킨 전문점,42,강원도,42110,춘천시,4211066000,퇴계동,4211012300,퇴계동,4211012300108940002,1,대지,894,2,강원도 춘천시 퇴계동 894-2,421103218036,강원도 춘천시 춘주로,201,,4211012300108940002000623,,강원도 춘천시 춘주로 201,200944,24443,,1,,127.727876091575,37.8607554077559
11950729,교촌치킨학동점,학동점,Q,음식,Q05,닭/오리요리,Q05A08,후라이드/양념치킨,I56193,치킨 전문점,29,광주광역시,29110,동구,2911071000,학운동,2911012200,학동,2911012200107350016,1,대지,735,16,광주광역시 동구 학동 735-16,291103159010,광주광역시 동구 의재로,22,,2911012200107350016014521,,광주광역시 동구 의재로 22,501847,61463,,1,,126.930096895009,35.1327506795576
11951008,옛날통닭,,Q,음식,Q05,닭/오리요리,Q05A08,후라이드/양념치킨,I56193,치킨 전문점,26,부산광역시,26710,기장군,2671025000,기장읍,2671025021,기장읍,2671025021101250023,1,대지,125,23,부산광역시 기장군 기장읍 동부리 125-23,267103140036,부산광역시 기장군 기장읍 읍내로,95,,2671025021101250023003477,밝은약국,부산광역시 기장군 기장읍 읍내로 95,619905,46061,,1,,129.214925002542,35.2452718787975
11951238,아주커치킨,,Q,음식,Q05,닭/오리요리,Q05A08,후라이드/양념치킨,I56193,치킨 전문점,29,광주광역시,29170,북구,2917066200,두암2동,2917011400,두암동,2917011400108240002,1,대지,824,2,광주광역시 북구 두암동 824-2,291703162016,광주광역시 북구 면앙로,190,,2917011400108240001038552,,광주광역시 북구 면앙로 190,500100,61196,,1,,126.932196935132,35.1752608168623
11951331,동면치킨,,Q,음식,Q05,닭/오리요리,Q05A08,후라이드/양념치킨,I56193,치킨 전문점,42,강원도,42720,홍천군,4272035200,영귀미면,4272035221,영귀미면,4272035221106830008,1,대지,683,8,강원도 홍천군 영귀미면 속초리 683-8,427203225003,강원도 홍천군 영귀미면 공작산로,507,,4272035021106830008011340,,"강원도 홍천군 영귀미면 공작산로 507, (속초리)",250893,25154,,1,,127.93681631393,37.6777258125393
11951483,하림치킨통닭,,Q,음식,Q05,닭/오리요리,Q05A08,후라이드/양념치킨,I56193,치킨 전문점,29,광주광역시,29140,서구,2914083000,풍암동,2914012800,풍암동,2914012800110480000,1,대지,1048,,광주광역시 서구 풍암동 1048,291403160050,광주광역시 서구 풍암순환로,10,,2914012800110480000003094,중흥2차아파트,광주광역시 서구 풍암순환로 10,502777,62056,201,1,,126.873853757886,35.1254716613691
11951507,삼도리치킨,,Q,음식,Q05,닭/오리요리,Q05A08,후라이드/양념치킨,I56193,치킨 전문점,11,서울특별시,11215,광진구,1121584700,자양4동,1121510500,자양동,1121510500108470008,1,대지,847,8,서울특별시 광진구 자양동 847-8,112154112247,서울특별시 광진구 뚝섬로27길,55,,1121510500108470008025522,,서울특별시 광진구 뚝섬로27길 55,143190,05078,,1,,127.066500981955,37.538297634307
11951747,두마리무쇠치킨경성부경대점,경성부경대점,Q,음식,Q05,닭/오리요리,Q05A08,후라이드/양념치킨,I56193,치킨 전문점,26,부산광역시,26290,남구,2629053000,대연3동,2629010600,대연동,2629010600100530009,1,대지,53,9,부산광역시 남구 대연동 53-9,262904193211,부산광역시 남구 용소로7번길,24,,2629010600100530009000048,,부산광역시 남구 용소로7번길 24,608020,48512,,1,,129.101722011925,35.1371708626881
11951957,구어조은닭,,Q,음식,Q05,닭/오리요리,Q05A08,후라이드/양념치킨,I56193,치킨 전문점,43,충청북도,43113,청주시 흥덕구,4311374100,복대1동,4311311400,복대동,4311311400127000000,1,대지,2700,,충청북도 청주시 흥덕구 복대동 2700,431134511874,충청북도 청주시 흥덕구 진재로31번길,25,2,4311311400127000000008362,,충청북도 청주시 흥덕구 진재로31번길 25-2,361270,28417,,1,,127.427991642608,36.6334876116561
11952145,보드람치킨,,Q,음식,Q05,닭/오리요리,Q05A08,후라이드/양념치킨,I56193,치킨 전문점,28,인천광역시,28200,남동구,2820071000,논현고잔동,2820011000,논현동,2820011000107710007,1,대지,771,7,인천광역시 남동구 논현동 771-7,282004259526,인천광역시 남동구 에코중앙로156번길,13,17,2820011000107330130000020,,인천광역시 남동구 에코중앙로156번길 13-17,405300,21684,,1,,126.726954689999,37.3915721916851
11952166,하림치킨,,Q,음식,Q05,닭/오리요리,Q05A08,후라이드/양념치킨,I56193,치킨 전문점,41,경기도,41570,김포시,4157034000,대곶면,4157034024,대곶면,4157034024101080000,1,대지,108,,경기도 김포시 대곶면 상마리 108,415703209036,경기도 김포시 대곶면 대곶서로,226,,4157034024101080000000002,,경기도 김포시 대곶면 대곶서로 226,415838,10043,,1,,126.580898394968,37.6391480501948
11952168,교촌치킨제주1호,,Q,음식,Q05,닭/오리요리,Q05A08,후라이드/양념치킨,I56193,치킨 전문점,50,제주특별자치도,50110,제주시,5011065000,연동,5011013700,연동,5011013700102720030,1,대지,272,30,제주특별자치도 제주시 연동 272-30,501103349083,제주특별자치도 제주시 삼무로,50,,5011013700102720030007572,국성원룸,제주특별자치도 제주시 삼무로 50,690814,63124,,1,,126.491985257804,33.4896312014279
11952326,씨에프숯불바베큐치킨,,Q,음식,Q05,닭/오리요리,Q05A08,후라이드/양념치킨,I56193,치킨 전문점,41,경기도,41570,김포시,4157055000,풍무동,4157010700,풍무동,4157010700105830006,1,대지,583,6,경기도 김포시 풍무동 583-6,415703209097,경기도 김포시 유현로,19,,4157010700100550015049854,유현마을신동아아파트,경기도 김포시 유현로 19,415755,10120,,,,126.724608667387,37.5975316619424
11952748,오늘통닭,,Q,음식,Q05,닭/오리요리,Q05A08,후라이드/양념치킨,I56193,치킨 전문점,42,강원도,42110,춘천시,4211065000,석사동,4211012400,석사동,4211012400109090006,1,대지,909,6,강원도 춘천시 석사동 909-6,421104454439,강원도 춘천시 스무숲1길,4,1,4211012400109090006000001,,강원도 춘천시 스무숲1길 4-1,200972,24416,,1,,127.749449593136,37.8498016854792
11952960,더바사칸두마리치킨,,Q,음식,Q05,닭/오리요리,Q05A08,후라이드/양념치킨,I56193,치킨 전문점,44,충청남도,44131,천안시 동남구,4413134000,성남면,4413134027,성남면,4413134027103160004,1,대지,316,4,충청남도 천안시 동남구 성남면 신사리 316-4,441314547452,충청남도 천안시 동남구 성남면 신사운전길,3,,4413134027103160004058025,멕시칸양념통닭,충청남도 천안시 동남구 성남면 신사운전길 3,330892,31245,,1,,127.236553516697,36.7426392867583
11953091,네네치킨,,Q,음식,Q05,닭/오리요리,Q05A08,후라이드/양념치킨,I56193,치킨 전문점,42,강원도,42780,철원군,4278025300,김화읍,4278025328,김화읍,4278025328120590001,1,대지,2059,1,강원도 철원군 김화읍 청양리 2059-1,427803230033,강원도 철원군 김화읍 청양로,78,1,4278025328120570001006475,백골군인백화점,강원도 철원군 김화읍 청양로 78-1,269833,24029,,1,,127.349936863042,38.234736249307
11953184,BHC치킨,,Q,음식,Q05,닭/오리요리,Q05A08,후라이드/양념치킨,I56193,치킨 전문점,28,인천광역시,28720,옹진군,2872033000,백령면,2872033022,백령면,2872033022105890006,1,대지,589,6,인천광역시 옹진군 백령면 북포리 589-6,287203158013,인천광역시 옹진군 백령면 백령로,877,,2872033023105890006000001,,인천광역시 옹진군 백령면 백령로 877,409912,23103,,,,124.661839199191,37.9566708981201
11953209,투죤치킨,,Q,음식,Q05,닭/오리요리,Q05A08,후라이드/양념치킨,I56193,치킨 전문점,31,울산광역시,31200,북구,3120056000,효문동,3120012200,연암동,3120012200104030001,1,대지,403,1,울산광역시 북구 연암동 403-1,312004316075,울산광역시 북구 두부곡16길,26,,3120012200104030001003548,,울산광역시 북구 두부곡16길 26,683805,44243,,1,,129.365672983462,35.5866352890317
11953297,박군치킨,,Q,음식,Q05,닭/오리요리,Q05A08,후라이드/양념치킨,I56193,치킨 전문점,43,충청북도,43111,청주시 상당구,4311167000,영운동,4311111900,영운동,4311111900102160007,1,대지,216,7,충청북도 청주시 상당구 영운동 216-7,431113236037,충청북도 청주시 상당구 영운로,35,,4311111900102160007043551,,충청북도 청주시 상당구 영운로 35,360090,28712,,1,,127.496386531661,36.6187911522048
11953308,바른치킨,강릉단오점,Q,음식,Q05,닭/오리요리,Q05A08,후라이드/양념치킨,I56193,치킨 전문점,42,강원도,42150,강릉시,4215061500,강남동,4215012100,노암동,4215012100107150019,1,대지,715,19,강원도 강릉시 노암동 715-19,421503220034,강원도 강릉시 임영로,72,1,4215012100107060006037492,,강원도 강릉시 임영로 72-1,210932,25587,,1,,128.897005851625,37.7488558075311
11953328,코리안숯불닭바베큐,,Q,음식,Q05,닭/오리요리,Q05A08,후라이드/양념치킨,I56193,치킨 전문점,47,경상북도,47170,안동시,4717058500,서구동,4717011900,옥야동,4717011900104160006,1,대지,416,6,경상북도 안동시 옥야동 416-6,471703307035,경상북도 안동시 제비원로,108,,4717011900104160017014254,,경상북도 안동시 제비원로 108,760240,36707,,1,,128.721060314548,36.5617989258908
11953418,옛날얼척이통닭,,Q,음식,Q05,닭/오리요리,Q05A08,후라이드/양념치킨,I56193,치킨 전문점,46,전라남도,46110,목포시,4611070500,북항동,4611010200,산정동,4611010200118040000,1,대지,1804,,전라남도 목포시 산정동 1804,461104643243,전라남도 목포시 북항로166번길,4,,4611010200118040000007803,종원청해아파트,전라남도 목포시 북항로166번길 4,530350,58715,102,1,,126.368101844064,34.803506295869
11953628,교촌치킨위례송파점,위례송파점,Q,음식,Q05,닭/오리요리,Q05A08,후라이드/양념치킨,I56193,치킨 전문점,11,서울특별시,11710,송파구,1171064700,위례동,1171010900,장지동,1171010900108940000,1,대지,894,,서울특별시 송파구 장지동 894,117103000238,서울특별시 송파구 위례광장로,136,,1171010900104050001000001,위례아이파크,서울특별시 송파구 위례광장로 136,138926,05852,,2,,127.142222616189,37.4771132063071
11953634,디디치킨아미점,아미점,Q,음식,Q05,닭/오리요리,Q05A08,후라이드/양념치킨,I56193,치킨 전문점,26,부산광역시,26140,서구,2614063000,초장동,2614011900,초장동,2614011900101250013,1,대지,125,13,부산광역시 서구 초장동 125-13,261403126022,부산광역시 서구 해돋이로,167,2,2614011900101250013022797,,부산광역시 서구 해돋이로 167-2,602836,49259,,1,,129.018711533409,35.0922771348969
11953754,처갓집양념치킨,영주1호점,Q,음식,Q05,닭/오리요리,Q05A08,후라이드/양념치킨,I56193,치킨 전문점,47,경상북도,47210,영주시,4721063000,가흥2동,4721010500,가흥동,4721010500110230010,1,대지,1023,10,경상북도 영주시 가흥동 1023-10,472104727719,경상북도 영주시 대학로261번길,36,,4721010500110230000000007,,경상북도 영주시 대학로261번길 36,750022,36137,,,,128.600650967221,36.8190014468906
11954221,BHC치킨온천중앙점,온천중앙점,Q,음식,Q05,닭/오리요리,Q05A08,후라이드/양념치킨,I56193,치킨 전문점,26,부산광역시,26260,동래구,2626055000,온천1동,2626010800,온천동,2626010800101510026,1,대지,151,26,부산광역시 동래구 온천동 151-26,262604190397,부산광역시 동래구 온천장로125번길,13,3,2626010800101510026013342,,부산광역시 동래구 온천장로125번길 13-3,607060,47708,,1,,129.084428077839,35.2222735214324
11954751,짱구꿀닭강정,,Q,음식,Q05,닭/오리요리,Q05A08,후라이드/양념치킨,I56193,치킨 전문점,28,인천광역시,28237,부평구,2823768000,십정1동,2823710200,십정동,2823710200103220021,1,대지,322,21,인천광역시 부평구 십정동 322-21,282373154021,인천광역시 부평구 배곶로,65,1,2823710200103220021005043,,인천광역시 부평구 배곶로 65-1,403130,21450,,1,,126.69578219354,37.473848597986
11954981,흥부네대박닭강정,,Q,음식,Q05,닭/오리요리,Q05A08,후라이드/양념치킨,I56193,치킨 전문점,11,서울특별시,11590,동작구,1159055000,상도3동,1159010200,상도동,1159010200103210030,1,대지,321,30,서울특별시 동작구 상도동 321-30,115904157029,서울특별시 동작구 국사봉길,41,,1159010200103210030024795,은성교회,서울특별시 동작구 국사봉길 41,156030,07042,,1,,126.9300270841,37.497872375335
11955020,네네치킨,광양제철점,Q,음식,Q05,닭/오리요리,Q05A08,후라이드/양념치킨,I56193,치킨 전문점,46,전라남도,46230,광양시,4623055000,금호동,4623011000,금호동,4623011000106240004,1,대지,624,4,전라남도 광양시 금호동 624-4,462303285019,전라남도 광양시 백운로,1638,11,4623011000106240004016062,백운메데컬센터,전라남도 광양시 백운로 1638-11,545875,57808,,1,,127.72571445204,34.9324324082064
11955095,맛젤치킨,명지대점,Q,음식,Q05,닭/오리요리,Q05A08,후라이드/양념치킨,I56193,치킨 전문점,11,서울특별시,11410,서대문구,1141070000,남가좌2동,1141012000,남가좌동,1141012000103510014,1,대지,351,14,서울특별시 서대문구 남가좌동 351-14,114103112003,서울특별시 서대문구 거북골로,73,,1141012000103510014004617,,서울특별시 서대문구 거북골로 73,120120,03694,,1,,126.920653041929,37.5770697343908
11955165,하남통닭,,Q,음식,Q05,닭/오리요리,Q05A08,후라이드/양념치킨,I56193,치킨 전문점,29,광주광역시,29200,광산구,2920063000,신가동,2920011900,신가동,2920011900108860005,1,대지,886,5,광주광역시 광산구 신가동 886-5,292003163028,광주광역시 광산구 신가번영로,32,,2920011900108860005013031,,광주광역시 광산구 신가번영로 32,506809,62311,,1,,126.826171060943,35.1813284985069
11955258,동경치킨,,Q,음식,Q05,닭/오리요리,Q05A08,후라이드/양념치킨,I56193,치킨 전문점,43,충청북도,43150,제천시,4315052800,중앙동,4315010100,의림동,4315010100100500001,1,대지,50,1,충청북도 제천시 의림동 50-1,431504518108,충청북도 제천시 풍양로9길,5,,4315010100100500001028790,머니플빌딩,충청북도 제천시 풍양로9길 5,390030,27169,,1,,128.208570023186,37.1385375167566
11955907,조아서치킨백화점,,Q,음식,Q05,닭/오리요리,Q05A08,후라이드/양념치킨,I56193,치킨 전문점,46,전라남도,46130,여수시,4613080000,여천동,4613013500,선원동,4613013500112560000,1,대지,1256,,전라남도 여수시 선원동 1256,461304646349,전라남도 여수시 무선3길,18,,4613013500112560000015021,남양아파트,전라남도 여수시 무선3길 18,555708,59641,205,1,,127.65011045839,34.7717559573617
11956064,티바두마리치킨,수곡점,Q,음식,Q05,닭/오리요리,Q05A08,후라이드/양념치킨,I56193,치킨 전문점,48,경상남도,48170,진주시,4817046000,수곡면,4817046023,수곡면,4817046023101210003,1,대지,121,3,경상남도 진주시 수곡면 대천리 121-3,481703019069,경상남도 진주시 수곡면 곤수로,977,,4817046023101210003026638,수곡우체국,경상남도 진주시 수곡면 곤수로 977,660971,52645,,2,,127.931447658764,35.1987159094461
11956094,그시절옛날통닭,,Q,음식,Q05,닭/오리요리,Q05A08,후라이드/양념치킨,I56193,치킨 전문점,47,경상북도,47113,포항시 북구,4711369000,두호동,4711312000,두호동,4711312000110770004,1,대지,1077,4,경상북도 포항시 북구 두호동 1077-4,471134712308,경상북도 포항시 북구 삼흥로62번길,35,,4711312000110770004109186,,경상북도 포항시 북구 삼흥로62번길 35,791804,37608,,1,,129.382711284472,36.0677771807133
11956218,BHC치킨영동상촌점,영동상촌점,Q,음식,Q05,닭/오리요리,Q05A08,후라이드/양념치킨,I56193,치킨 전문점,43,충청북도,43740,영동군,4374035000,상촌면,4374035021,상촌면,4374035021103240005,1,대지,324,5,충청북도 영동군 상촌면 임산리 324-5,437403000180,충청북도 영동군 상촌면 민주지산로,3019,3,4374035021103240005005545,,충청북도 영동군 상촌면 민주지산로 3019-3,370882,29123,,1,,127.914494139711,36.1491511264255
11956235,부영닭강정,,Q,음식,Q05,닭/오리요리,Q05A08,후라이드/양념치킨,I56193,치킨 전문점,42,강원도,42230,삼척시,4223051000,남양동,4223012000,남양동,4223012000100550004,1,대지,55,4,강원도 삼척시 남양동 55-4,422303224029,강원도 삼척시 진주로,12,21,4223012000100550003000001,중앙시장,강원도 삼척시 진주로 12-21,245936,25920,A,1,,129.165228800951,37.4421335980237
11956328,만계치킨,송정점,Q,음식,Q05,닭/오리요리,Q05A08,후라이드/양념치킨,I56193,치킨 전문점,29,광주광역시,29200,광산구,2920051500,송정1동,2920010100,송정동,2920010100102300008,1,대지,230,8,광주광역시 광산구 송정동 230-8,292004289320,광주광역시 광산구 송정로65번길,28,,2920010100102300008010117,송정동대덕9차아파트,광주광역시 광산구 송정로65번길 28,506010,62434,,1,,126.798708235224,35.1353684082033
11957120,페리카나치킨조천점,조천점,Q,음식,Q05,닭/오리요리,Q05A08,후라이드/양념치킨,I56193,치킨 전문점,50,제주특별자치도,50110,제주시,5011025900,조천읍,5011025923,조천읍,5011025923125890000,1,대지,2589,,제주특별자치도 제주시 조천읍 조천리 2589,501103349182,제주특별자치도 제주시 조천읍 조함해안로,10,,5011025923025890000063546,,제주특별자치도 제주시 조천읍 조함해안로 10,695964,63331,,1,,126.638886744148,33.538791565829
11957477,교촌치킨,주안3호점,Q,음식,Q05,닭/오리요리,Q05A08,후라이드/양념치킨,I56193,치킨 전문점,28,인천광역시,28177,미추홀구,2817767000,주안6동,2817710500,주안동,2817710500109290011,1,대지,929,11,인천광역시 미추홀구 주안동 929-11,281772008007,인천광역시 미추홀구 경원대로,898,,2817010600109290011124383,세우빌딩,인천광역시 미추홀구 경원대로 898,402848,22143,,1,,126.690062006816,37.4628197576855
11957520,켄터키치킨,,Q,음식,Q05,닭/오리요리,Q05A08,후라이드/양념치킨,I56193,치킨 전문점,45,전라북도,45140,익산시,4514064700,영등2동,4514012200,영등동,4514012200108210000,1,대지,821,,전라북도 익산시 영등동 821,451404607064,전라북도 익산시 고봉로34길,35,,4514012200108210000065375,제일3차아파트,전라북도 익산시 고봉로34길 35,570769,54544,505,1,,126.974816215141,35.9605753395079
11957583,옛날가마솥양념통닭,,Q,음식,Q05,닭/오리요리,Q05A08,후라이드/양념치킨,I56193,치킨 전문점,45,전라북도,45130,군산시,4513056000,삼학동,4513011100,삼학동,4513011100107950049,1,대지,795,49,전라북도 군산시 삼학동 795-49,451304604456,전라북도 군산시 삼학안1길,10,,4513011100107950049016412,옛날가마솥양념통닭,전라북도 군산시 삼학안1길 10,573310,54119,,1,,126.712070902808,35.9757166850488
11957616,추닭집,,Q,음식,Q05,닭/오리요리,Q05A08,후라이드/양념치킨,I56193,치킨 전문점,41,경기도,41360,남양주시,4136025000,와부읍,4136025021,와부읍,4136025021105110001,1,대지,511,1,경기도 남양주시 와부읍 덕소리 511-1,413603197017,경기도 남양주시 와부읍 덕소로,107,,4136025021105110001017794,성일우리미아파트상가,경기도 남양주시 와부읍 덕소로 107,472901,12214,,1,,127.212333918402,37.5845844638943
11957696,허브치킨,,Q,음식,Q05,닭/오리요리,Q05A08,후라이드/양념치킨,I56193,치킨 전문점,11,서울특별시,11590,동작구,1159052000,노량진2동,1159010100,노량진동,1159010100100400032,1,대지,40,32,서울특별시 동작구 노량진동 40-32,115904157057,서울특별시 동작구 노량진로12길,8,,1159010100100400032030322,사계절노래방,서울특별시 동작구 노량진로12길 8,156050,06928,,1,,126.93830702259,37.5129315030638
11958075,옛날수제통닭,외동점,Q,음식,Q05,닭/오리요리,Q05A08,후라이드/양념치킨,I56193,치킨 전문점,48,경상남도,48123,창원시 성산구,4812352000,중앙동,4812310400,외동,4812310400108530016,1,대지,853,16,경상남도 창원시 성산구 외동 853-16,481234784250,경상남도 창원시 성산구 창원대로780번길,34,,4812310400108530016067364,월드메르디앙이스턴애비뉴,경상남도 창원시 성산구 창원대로780번길 34,642020,51531,,1,,128.675189521748,35.2138538431475
11958372,티바두마리치킨,군북점,Q,음식,Q05,닭/오리요리,Q05A08,후라이드/양념치킨,I56193,치킨 전문점,48,경상남도,48730,함안군,4873032000,군북면,4873032023,군북면,4873032023105050005,1,대지,505,5,경상남도 함안군 군북면 소포리 505-5,487302330001,경상남도 함안군 군북면 함마대로,838,,4873032023105050005054292,,경상남도 함안군 군북면 함마대로 838,637824,52063,,,,128.348936723281,35.262720786314
11958407,통닭5900원,,Q,음식,Q05,닭/오리요리,Q05A08,후라이드/양념치킨,I56193,치킨 전문점,41,경기도,41190,부천시,4119060300,심곡동,4119010200,심곡동,4119010200104580009,1,대지,458,9,경기도 부천시 심곡동 458-9,411903185020,경기도 부천시 신흥로,36,,4119510200104580009005013,,경기도 부천시 신흥로 36,420829,14635,,1,,126.777091840526,37.4869272400094
11958592,바람난촌놈치킨,상봉점,Q,음식,Q05,닭/오리요리,Q05A08,후라이드/양념치킨,I56193,치킨 전문점,11,서울특별시,11260,중랑구,1126059000,상봉2동,1126010200,상봉동,1126010200101120046,1,대지,112,46,서울특별시 중랑구 상봉동 112-46,112604118259,서울특별시 중랑구 면목로91길,42,,1126010200101120046016005,,서울특별시 중랑구 면목로91길 42,131220,02137,,1,,127.083605456357,37.5940984001746
11958679,BHC치킨함덕점,함덕점,Q,음식,Q05,닭/오리요리,Q05A08,후라이드/양념치킨,I56193,치킨 전문점,50,제주특별자치도,50110,제주시,5011025900,조천읍,5011025924,조천읍,5011025924130920000,1,대지,3092,,제주특별자치도 제주시 조천읍 함덕리 3092,501103349112,제주특별자치도 제주시 조천읍 신북로,477,,5011025924030920000069647,,제주특별자치도 제주시 조천읍 신북로 477,695965,63333,,1,,126.661217757334,33.5435700089323
11958714,난타5000.깻잎치킨,,Q,음식,Q05,닭/오리요리,Q05A08,후라이드/양념치킨,I56193,치킨 전문점,29,광주광역시,29155,남구,2915553800,봉선2동,2915511500,봉선동,2915511500100050000,1,대지,5,,광주광역시 남구 봉선동 5,291553161028,광주광역시 남구 용대로,128,,2915511500100050000005025,명지아파트,광주광역시 남구 용대로 128,503060,61681,,1,,126.919299873022,35.1277783374762
11958814,교촌치킨,혁신점,Q,음식,Q05,닭/오리요리,Q05A08,후라이드/양념치킨,I56193,치킨 전문점,42,강원도,42130,원주시,4213067500,반곡관설동,4213011700,반곡동,4213011700118800007,1,대지,1880,7,강원도 원주시 반곡동 1880-7,421303219085,강원도 원주시 양지로,14,,4213011700118800007000001,,강원도 원주시 양지로 14,220170,26465,,,,127.979923299938,37.3248476947782
11958841,정닭강정,,Q,음식,Q05,닭/오리요리,Q05A08,후라이드/양념치킨,I56193,치킨 전문점,43,충청북도,43113,청주시 흥덕구,4311375600,봉명2.송정동,4311311500,봉명동,4311311500117870000,1,대지,1787,,충청북도 청주시 흥덕구 봉명동 1787,431133237011,충청북도 청주시 흥덕구 과상미로,22,,4311311500117870000016705,,충청북도 청주시 흥덕구 과상미로 22,361300,28451,,1,,127.461965886758,36.6442350823333
11958952,지그재그치킨점,,Q,음식,Q05,닭/오리요리,Q05A08,후라이드/양념치킨,I56193,치킨 전문점,45,전라북도,45113,전주시 덕진구,4511352500,진북동,4511310200,진북동,4511310200104160000,1,대지,416,,전라북도 전주시 덕진구 진북동 416,451133266076,전라북도 전주시 덕진구 태진로,101,,4511310200104340000005312,우성아파트,전라북도 전주시 덕진구 태진로 101,561783,54937,108,1,,127.13543982521,35.8302860766754
11959172,호식이두마리치킨,안성2호점,Q,음식,Q05,닭/오리요리,Q05A08,후라이드/양념치킨,I56193,치킨 전문점,41,경기도,41550,안성시,4155053000,안성3동,4155011400,금산동,4155011400101290009,1,대지,129,9,경기도 안성시 금산동 129-9,415504424622,경기도 안성시 중앙로367번길,72,21,4155011400101290009021885,,경기도 안성시 중앙로367번길 72-21,456310,17580,,,,127.269702551428,37.0108353648373
11959237,치킨매니아,,Q,음식,Q05,닭/오리요리,Q05A08,후라이드/양념치킨,I56193,치킨 전문점,44,충청남도,44180,보령시,4418053500,대천3동,4418010400,동대동,4418010400105750079,1,대지,575,79,충청남도 보령시 동대동 575-79,441804556642,충청남도 보령시 한내로터리길,115,,4418010400105750079000001,,충청남도 보령시 한내로터리길 115,355935,33432,,,,126.613167922307,36.3499150396884
11959349,BBQ치킨,,Q,음식,Q05,닭/오리요리,Q05A08,후라이드/양념치킨,I56193,치킨 전문점,41,경기도,41500,이천시,4150051500,증포동,4150010700,안흥동,4150010700104080001,1,대지,408,1,경기도 이천시 안흥동 408-1,415004421706,경기도 이천시 중리천로115번길,45,,4150010700104040003042005,,경기도 이천시 중리천로115번길 45,467050,17372,,1,,127.450756659809,37.2763836909242
11959384,추억의옛날통닭,,Q,음식,Q05,닭/오리요리,Q05A08,후라이드/양념치킨,I56193,치킨 전문점,44,충청남도,44800,홍성군,4480025000,홍성읍,4480025026,홍성읍,4480025026101120003,1,대지,112,3,충청남도 홍성군 홍성읍 남장리 112-3,448004586228,충청남도 홍성군 홍성읍 문화로72번길,39,,4480025026101120003000001,,충청남도 홍성군 홍성읍 문화로72번길 39,350803,32238,,,,126.663260339749,36.5919824343584
11959592,지그재그치킨,,Q,음식,Q05,닭/오리요리,Q05A08,후라이드/양념치킨,I56193,치킨 전문점,45,전라북도,45111,전주시 완산구,4511168000,서신동,4511112900,서신동,4511112900107610001,1,대지,761,1,전라북도 전주시 완산구 서신동 761-1,451113266051,전라북도 전주시 완산구 온고을로,121,,4511112900107610001006363,서신동광진아파트,전라북도 전주시 완산구 온고을로 121,560791,54947,101,1,,127.108881496642,35.8338325313262
11959632,굽네치킨,원주혁신점,Q,음식,Q05,닭/오리요리,Q05A08,후라이드/양념치킨,I56193,치킨 전문점,42,강원도,42130,원주시,4213067500,반곡관설동,4213011700,반곡동,4213011700119240009,1,대지,1924,9,강원도 원주시 반곡동 1924-9,421303219088,강원도 원주시 황금로,13,,4213011700119240009000001,,강원도 원주시 황금로 13,220170,26462,,,,127.988385660489,37.3275341521922
11959754,추억의통치킨,,Q,음식,Q05,닭/오리요리,Q05A08,후라이드/양념치킨,I56193,치킨 전문점,11,서울특별시,11680,강남구,1168065500,도곡1동,1168011800,도곡동,1168011800109500006,1,대지,950,6,서울특별시 강남구 도곡동 950-6,116804166091,서울특별시 강남구 남부순환로359길,29,,1168011800109500007000673,,서울특별시 강남구 남부순환로359길 29,135270,06266,,,,127.035697706707,37.4866450050009
11959783,초닭치킨,,Q,음식,Q05,닭/오리요리,Q05A08,후라이드/양념치킨,I56193,치킨 전문점,42,강원도,42130,원주시,4213053000,개운동,4213010500,개운동,4213010500104440007,1,대지,444,7,강원도 원주시 개운동 444-7,421304457697,강원도 원주시 송림길,48,14,4213010500104440007001231,,강원도 원주시 송림길 48-14,220932,26448,,1,,127.951912888165,37.3315529350517
11959827,두만이통닭,,Q,음식,Q05,닭/오리요리,Q05A08,후라이드/양념치킨,I56193,치킨 전문점,11,서울특별시,11260,중랑구,1126063000,묵2동,1126010400,묵동,1126010400102390082,1,대지,239,82,서울특별시 중랑구 묵동 239-82,112604118120,서울특별시 중랑구 동일로157길,8,,1126010400102390082008040,,서울특별시 중랑구 동일로157길 8,131140,02006,,1,,127.077305664664,37.6099887695663
11959944,오마이치킨,,Q,음식,Q05,닭/오리요리,Q05A08,후라이드/양념치킨,I56193,치킨 전문점,45,전라북도,45111,전주시 완산구,4511165000,동서학동,4511112500,동서학동,4511112500102900003,1,대지,290,3,전라북도 전주시 완산구 동서학동 290-3,451113266063,전라북도 전주시 완산구 장승배기로,398,,4511112500102900003011361,거산황궁아파트,전라북도 전주시 완산구 장승배기로 398,560751,55114,104,1,,127.153267765763,35.8044641651964
11959983,케이머리스홈치킨,,Q,음식,Q05,닭/오리요리,Q05A08,후라이드/양념치킨,I56193,치킨 전문점,29,광주광역시,29140,서구,2914083000,풍암동,2914012800,풍암동,2914012800110530000,1,대지,1053,,광주광역시 서구 풍암동 1053,291403160050,광주광역시 서구 풍암순환로,38,,2914012800110530000003074,한신아파트,광주광역시 서구 풍암순환로 38,502777,62065,,2,,126.876568929444,35.1226935347172
11960005,에디슨치킨,,Q,음식,Q05,닭/오리요리,Q05A08,후라이드/양념치킨,I56193,치킨 전문점,42,강원도,42210,속초시,4221054000,금호동,4221010400,금호동,4221010400106250000,1,대지,625,,강원도 속초시 금호동 625,422104469094,강원도 속초시 번영로67번길,25,,4221010400106250000014660,속초대명2차아파트,강원도 속초시 번영로67번길 25,217808,24842,,1,,128.581879537546,38.2066325286436
11960027,더맛나네치킨,,Q,음식,Q05,닭/오리요리,Q05A08,후라이드/양념치킨,I56193,치킨 전문점,30,대전광역시,30200,유성구,3020052000,진잠동,3020010400,용계동,3020010400100340006,1,대지,34,6,대전광역시 유성구 용계동 34-6,302003167051,대전광역시 유성구 용계로,3,24,3020010400100340006017137,1동,대전광역시 유성구 용계로 3-24,305363,34218,1,1,,127.335112817447,36.3267505807417
11960126,치킨더비,수원법원점,Q,음식,Q05,닭/오리요리,Q05A08,후라이드/양념치킨,I56193,치킨 전문점,41,경기도,41117,수원시 영통구,4111752000,매탄2동,4111710100,매탄동,4111710100101020005,1,대지,102,5,경기도 수원시 영통구 매탄동 102-5,411173175016,경기도 수원시 영통구 동수원로,526,,4111710100101020005003895,,경기도 수원시 영통구 동수원로 526,443370,16525,,,,127.04809114083,37.273109820636
11960135,멕시칸치킨,,Q,음식,Q05,닭/오리요리,Q05A08,후라이드/양념치킨,I56193,치킨 전문점,43,충청북도,43750,진천군,4375035000,이월면,4375035025,이월면,4375035025105200020,1,대지,520,20,충청북도 진천군 이월면 송림리 520-20,437503000132,충청북도 진천군 이월면 진안로,32,,4375035025105190029017950,,충청북도 진천군 이월면 진안로 32,365821,27813,,,,127.426711556629,36.9335402445795
11960159,용씨네누룽지통닭구이,,Q,음식,Q05,닭/오리요리,Q05A08,후라이드/양념치킨,I56193,치킨 전문점,11,서울특별시,11380,은평구,1138062500,역촌동,1138010800,역촌동,1138010800100020055,1,대지,2,55,서울특별시 은평구 역촌동 2-55,113803111005,서울특별시 은평구 역말로,101,,1138010800100020055018742,토마스빌딩,서울특별시 은평구 역말로 101,122895,03398,,1,,126.920131918575,37.6084389447236
11960284,신통치킨죽동점,죽동점,Q,음식,Q05,닭/오리요리,Q05A08,후라이드/양념치킨,I56193,치킨 전문점,30,대전광역시,30200,유성구,3020054000,온천2동,3020012100,죽동,3020012100107280007,1,대지,728,7,대전광역시 유성구 죽동 728-7,302004851243,대전광역시 유성구 죽동로279번길,66,,3020012100107280007000001,,대전광역시 유성구 죽동로279번길 66,305328,34127,,1,,127.340213543697,36.3716969838734
11960292,치킨프라자,,Q,음식,Q05,닭/오리요리,Q05A08,후라이드/양념치킨,I56193,치킨 전문점,41,경기도,41550,안성시,4155025000,공도읍,4155025031,공도읍,4155025031100360001,1,대지,36,1,경기도 안성시 공도읍 진사리 36-1,415504424657,경기도 안성시 공도읍 진사길,32,,4155025031100360001014663,주은청설아파트,경기도 안성시 공도읍 진사길 32,456715,17564,B,1,,127.139921004797,36.9905643624352
11960357,네네치킨,,Q,음식,Q05,닭/오리요리,Q05A08,후라이드/양념치킨,I56193,치킨 전문점,45,전라북도,45111,전주시 완산구,4511171300,효자3동,4511114000,효자동1가,4511114000106600001,1,대지,660,1,전라북도 전주시 완산구 효자동1가 660-1,451113016010,전라북도 전주시 완산구 강변로,120,1,4511114000106600001033864,한강아파트,전라북도 전주시 완산구 강변로 120-1,560891,55085,660,1,,127.114204458395,35.8020375772656
11960531,못생긴파닭,,Q,음식,Q05,닭/오리요리,Q05A08,후라이드/양념치킨,I56193,치킨 전문점,29,광주광역시,29200,광산구,2920062600,첨단2동,2920011500,월계동,2920011500108400002,1,대지,840,2,광주광역시 광산구 월계동 840-2,292004289605,광주광역시 광산구 첨단내촌로36번길,12,,2920011500108400002016896,,광주광역시 광산구 첨단내촌로36번길 12,506824,62269,,1,,126.837928173329,35.2099433894051
11960536,금동이두마리치킨,매곡점,Q,음식,Q05,닭/오리요리,Q05A08,후라이드/양념치킨,I56193,치킨 전문점,31,울산광역시,31200,북구,3120052000,농소2동,3120010300,매곡동,3120010300105870000,1,대지,587,,울산광역시 북구 매곡동 587,312004316189,울산광역시 북구 신기2길,23,,3120010300105870000013951,,울산광역시 북구 신기2길 23,683420,44219,나,1,,129.355327891479,35.6431640626506
11960552,BHC치킨,대구대신점,Q,음식,Q05,닭/오리요리,Q05A08,후라이드/양념치킨,I56193,치킨 전문점,27,대구광역시,27170,서구,2717058000,비산4동,2717010200,비산동,2717010200102150046,1,대지,215,46,대구광역시 서구 비산동 215-46,271704229062,대구광역시 서구 국채보상로78길,38,,2717010200102150046029106,,대구광역시 서구 국채보상로78길 38,703040,41809,,1,,128.57376851574,35.8693319073647
11960641,진미통닭운암점,운암점,Q,음식,Q05,닭/오리요리,Q05A08,후라이드/양념치킨,I56193,치킨 전문점,41,경기도,41370,오산시,4137051000,중앙동,4137010100,오산동,4137010100101090001,1,대지,109,1,경기도 오산시 오산동 109-1,413703198035,경기도 오산시 운천로,115,,4137010100101090001000001,,경기도 오산시 운천로 115,447800,18134,다,1,,127.074149312322,37.1532177555991
11960974,쌀통닭,,Q,음식,Q05,닭/오리요리,Q05A08,후라이드/양념치킨,I56193,치킨 전문점,43,충청북도,43113,청주시 흥덕구,4311376000,강서1동,4311313800,비하동,4311313800107660000,1,대지,766,,충청북도 청주시 흥덕구 비하동 766,431133237035,충청북도 청주시 흥덕구 비하로,26,,4311313800107660000000001,,충청북도 청주시 흥덕구 비하로 26,361825,28365,,1,,127.425260056132,36.6294010033658
11961002,참깨치킨,백석대점,Q,음식,Q05,닭/오리요리,Q05A08,후라이드/양념치킨,I56193,치킨 전문점,44,충청남도,44131,천안시 동남구,4413159000,신안동,4413111900,안서동,4413111900103860000,1,대지,386,,충청남도 천안시 동남구 안서동 386,441313249011,충청남도 천안시 동남구 문암로,69,,4413111900103860000002244,이삭고시텔,충청남도 천안시 동남구 문암로 69,330997,31065,,1,,127.180671433051,36.8410720695239
11961236,또래오래,간현점,Q,음식,Q05,닭/오리요리,Q05A08,후라이드/양념치킨,I56193,치킨 전문점,42,강원도,42130,원주시,4213033000,지정면,4213033021,지정면,4213033021108070006,1,대지,807,6,강원도 원주시 지정면 간현리 807-6,421303219002,강원도 원주시 지정면 간현로,178,,4213033021108070006030727,,강원도 원주시 지정면 간현로 178,220822,26359,,1,,127.83680587094,37.3642866614788
11961247,포촌치킨,대신점,Q,음식,Q05,닭/오리요리,Q05A08,후라이드/양념치킨,I56193,치킨 전문점,47,경상북도,47150,김천시,4715056500,양금동,4715010700,황금동,4715010700101290003,1,대지,129,3,경상북도 김천시 황금동 129-3,471503306023,경상북도 김천시 양금로,196,,4715010700101290003004111,동보수정맨션,경상북도 김천시 양금로 196,740762,39618,1,,,128.123391378819,36.1113176774368
11961366,카츠네치킨,,Q,음식,Q05,닭/오리요리,Q05A08,후라이드/양념치킨,I56193,치킨 전문점,11,서울특별시,11650,서초구,1165053000,서초3동,1165010800,서초동,1165010800115720013,1,대지,1572,13,서울특별시 서초구 서초동 1572-13,116504163239,서울특별시 서초구 반포대로30길,57,,1165010800115720013020390,,서울특별시 서초구 반포대로30길 57,137070,06645,,1,,127.011681972564,37.4925376786959
11961448,스모프치킨,,Q,음식,Q05,닭/오리요리,Q05A08,후라이드/양념치킨,I56193,치킨 전문점,29,광주광역시,29170,북구,2917066900,일곡동,2917012700,일곡동,2917012700108180004,1,대지,818,4,광주광역시 북구 일곡동 818-4,291703162033,광주광역시 북구 설죽로,560,,2917012700108180004014772,금호타운,광주광역시 북구 설죽로 560,500865,61037,104,1,,126.898815628605,35.2083852267097
11961581,순살로치킨용산점,용산점,Q,음식,Q05,닭/오리요리,Q05A08,후라이드/양념치킨,I56193,치킨 전문점,43,충청북도,43130,충주시,4313058000,호암.직동,4313010700,호암동,4313010700101350000,1,대지,135,,충청북도 충주시 호암동 135,431303238085,충청북도 충주시 호암중앙2로,27,,4313010700101350000007060,진도아파트,충청북도 충주시 호암중앙2로 27,380966,27481,102,1,,127.93948383375,36.955779460735
11962422,우미치킨,,Q,음식,Q05,닭/오리요리,Q05A08,후라이드/양념치킨,I56193,치킨 전문점,46,전라남도,46110,목포시,4611079000,옥암동,4611016400,옥암동,4611016400109620000,1,대지,962,,전라남도 목포시 옥암동 962,461103281038,전라남도 목포시 삼향천로,131,,4611016400109620000011144,우미아파트,전라남도 목포시 삼향천로 131,530831,58663,,1,,126.428654566405,34.811469293886
11962713,스마일통닭,,Q,음식,Q05,닭/오리요리,Q05A08,후라이드/양념치킨,I56193,치킨 전문점,45,전라북도,45140,익산시,4514061000,모현동,4514011400,모현동1가,4514011400102270003,1,대지,227,3,전라북도 익산시 모현동1가 227-3,451404607083,전라북도 익산시 고현로14길,16,,4514011400102270003088701,모현제일고층아파트,전라북도 익산시 고현로14길 16,570966,54661,,1,,126.944863602116,35.9437953201303
11962899,우리통닭,,Q,음식,Q05,닭/오리요리,Q05A08,후라이드/양념치킨,I56193,치킨 전문점,45,전라북도,45130,군산시,4513071000,소룡동,4513014600,소룡동,4513014600108570000,1,대지,857,,전라북도 군산시 소룡동 857,451304605065,전라북도 군산시 풍전3길,30,,4513014600108570000013909,그린서해맨션아파트,전라북도 군산시 풍전3길 30,573792,54010,102,1,,126.679621048654,35.9801495810964
11963962,이태리치킨,,Q,음식,Q05,닭/오리요리,Q05A08,후라이드/양념치킨,I56193,치킨 전문점,50,제주특별자치도,50130,서귀포시,5013059000,대륜동,5013010200,법환동,5013010200102630001,1,대지,263,1,제주특별자치도 서귀포시 법환동 263-1,501303350237,제주특별자치도 서귀포시 이어도로,932,,5013010200102630001020511,,제주특별자치도 서귀포시 이어도로 932,697805,63573,,2,,126.514056758047,33.2379125693897
11964016,페리카나연수6점,연수6점,Q,음식,Q05,닭/오리요리,Q05A08,후라이드/양념치킨,I56193,치킨 전문점,28,인천광역시,28185,연수구,2818576200,연수2동,2818510300,연수동,2818510300106160006,1,대지,616,6,인천광역시 연수구 연수동 616-6,281853152011,인천광역시 연수구 샘말로,106,7,2818510300106160006115381,,인천광역시 연수구 샘말로 106-7,406110,21929,,1,,126.681740682063,37.4152606719146
11964322,멕시카나치킨,장유2점,Q,음식,Q05,닭/오리요리,Q05A08,후라이드/양념치킨,I56193,치킨 전문점,48,경상남도,48250,김해시,4825061000,장유1동,4825012500,부곡동,4825012500108810002,1,대지,881,2,경상남도 김해시 부곡동 881-2,482503335044,경상남도 김해시 월산로,111,48,4825031023108810002070808,부영8단지16차아파트,경상남도 김해시 월산로 111-48,621785,50978,,1,,128.799365533738,35.2031912283301
11964429,BBQ치킨,대구무태점,Q,음식,Q05,닭/오리요리,Q05A08,후라이드/양념치킨,I56193,치킨 전문점,27,대구광역시,27230,북구,2723069500,무태조야동,2723011400,동변동,2723011400106690001,1,대지,669,1,대구광역시 북구 동변동 669-1,272303145023,대구광역시 북구 동변로,97,,2723011400106690001003105,,대구광역시 북구 동변로 97,702882,41413,,,,128.602508226884,35.9210079790307
11964554,디디치킨영월점,영월점,Q,음식,Q05,닭/오리요리,Q05A08,후라이드/양념치킨,I56193,치킨 전문점,42,강원도,42750,영월군,4275025000,영월읍,4275025022,영월읍,4275025022101610020,1,대지,161,20,강원도 영월군 영월읍 하송리 161-20,427504481193,강원도 영월군 영월읍 은행나무5길,41,,4275025022101610020018828,,강원도 영월군 영월읍 은행나무5길 41,230808,26237,,1,,128.462632136114,37.179982286057
11964567,굽네치킨대전법동점,대전법동점,Q,음식,Q05,닭/오리요리,Q05A08,후라이드/양념치킨,I56193,치킨 전문점,30,대전광역시,30230,대덕구,3023061000,법2동,3023010800,법동,3023010800102060002,1,대지,206,2,대전광역시 대덕구 법동 206-2,302304304020,대전광역시 대덕구 계족산로17번길,93,,3023010800102060002000001,,대전광역시 대덕구 계족산로17번길 93,306060,34406,,1,,127.432062124083,36.3659502901172
11964605,옛날통닭,,Q,음식,Q05,닭/오리요리,Q05A08,후라이드/양념치킨,I56193,치킨 전문점,50,제주특별자치도,50110,제주시,5011025900,조천읍,5011025923,조천읍,5011025923122290001,1,대지,2229,1,제주특별자치도 제주시 조천읍 조천리 2229-1,501103349112,제주특별자치도 제주시 조천읍 신북로,214,,5011025923022290001063922,,제주특별자치도 제주시 조천읍 신북로 214,695964,63331,,1,,126.636120972563,33.5352900313946
11964759,옥동자치킨사동점,사동점,Q,음식,Q05,닭/오리요리,Q05A08,후라이드/양념치킨,I56193,치킨 전문점,41,경기도,41271,안산시 상록구,4127152500,사동,4127110300,사동,4127110300113210010,1,대지,1321,10,경기도 안산시 상록구 사동 1321-10,412713190040,경기도 안산시 상록구 석호로,199,,4127110300113210010039567,,경기도 안산시 상록구 석호로 199,426823,15582,,1,,126.853330208043,37.2953971201136
11964814,디디치킨장유점,장유점,Q,음식,Q05,닭/오리요리,Q05A08,후라이드/양념치킨,I56193,치킨 전문점,48,경상남도,48250,김해시,4825062000,장유2동,4825012800,삼문동,4825012800100720004,1,대지,72,4,경상남도 김해시 삼문동 72-4,482504805355,경상남도 김해시 번화1로123번길,31,,4825012800100720004000001,,경상남도 김해시 번화1로123번길 31,621290,50986,,1,,128.794527133601,35.1969132091814
11964817,BBQ치킨김해삼문점,김해삼문점,Q,음식,Q05,닭/오리요리,Q05A08,후라이드/양념치킨,I56193,치킨 전문점,48,경상남도,48250,김해시,4825062000,장유2동,4825012800,삼문동,4825012800100680005,1,대지,68,5,경상남도 김해시 삼문동 68-5,482504805262,경상남도 김해시 능동로7번길,14,,4825012800100680005000001,,경상남도 김해시 능동로7번길 14,621290,50986,,1,,128.794012270259,35.1970427833592
11964890,하노이치맥&푸드,,Q,음식,Q05,닭/오리요리,Q05A08,후라이드/양념치킨,I56193,치킨 전문점,29,광주광역시,29200,광산구,2920067000,평동,2920014600,월전동,2920014600112040000,1,대지,1204,,광주광역시 광산구 월전동 1204,292003163058,광주광역시 광산구 평동산단로,196,6,2920014600112040000000001,,광주광역시 광산구 평동산단로 196-6,506501,62418,,1,,126.768923299637,35.1240546496686
11965042,부리나치킨운암점,운암점,Q,음식,Q05,닭/오리요리,Q05A08,후라이드/양념치킨,I56193,치킨 전문점,29,광주광역시,29170,북구,2917060100,운암1동,2917010900,운암동,2917010900109360015,1,대지,936,15,광주광역시 북구 운암동 936-15,291703162008,광주광역시 북구 대자실로,22,,2917010900109360015000001,포레스힐2,광주광역시 북구 대자실로 22,500170,61256,,1,,126.874158300582,35.1790438751752
11965176,옛날통닭송정1호점,송정1호점,Q,음식,Q05,닭/오리요리,Q05A08,후라이드/양념치킨,I56193,치킨 전문점,29,광주광역시,29200,광산구,2920052500,송정2동,2920010100,송정동,2920010100108210011,1,대지,821,11,광주광역시 광산구 송정동 821-11,292003163005,광주광역시 광산구 내상로,27,,2920010100108210011043153,,광주광역시 광산구 내상로 27,506010,62431,,1,,126.796532731743,35.1392948669539
11965277,훌랄라참숯바베큐,복대1점,Q,음식,Q05,닭/오리요리,Q05A08,후라이드/양념치킨,I56193,치킨 전문점,43,충청북도,43113,청주시 흥덕구,4311374100,복대1동,4311311400,복대동,4311311400130210000,1,대지,3021,,충청북도 청주시 흥덕구 복대동 3021,431133237081,충청북도 청주시 흥덕구 진재로,22,,4311311400130210000008397,,충청북도 청주시 흥덕구 진재로 22,361270,28420,,1,,127.429918316646,36.6330282174706
11965304,멕시카나치킨하복대점,하복대점,Q,음식,Q05,닭/오리요리,Q05A08,후라이드/양념치킨,I56193,치킨 전문점,43,충청북도,43113,청주시 흥덕구,4311374100,복대1동,4311311400,복대동,4311311400128140000,1,대지,2814,,충청북도 청주시 흥덕구 복대동 2814,431134511886,충청북도 청주시 흥덕구 짐대로50번길,14,,4311311400128140000007991,,충청북도 청주시 흥덕구 짐대로50번길 14,361270,28417,,1,,127.427218673712,36.6321681338145
11965326,알랑치킨,,Q,음식,Q05,닭/오리요리,Q05A08,후라이드/양념치킨,I56193,치킨 전문점,28,인천광역시,28710,강화군,2871040000,교동면,2871040021,교동면,2871040021105080007,1,대지,508,7,인천광역시 강화군 교동면 대룡리 508-7,287104271259,인천광역시 강화군 교동면 대룡안길54번길,52,,2871040021105080007046324,,인천광역시 강화군 교동면 대룡안길54번길 52,417922,23002,,1,,126.279986698234,37.7828375283045
11965642,봉추통닭,운남점,Q,음식,Q05,닭/오리요리,Q05A08,후라이드/양념치킨,I56193,치킨 전문점,29,광주광역시,29200,광산구,2920063500,운남동,2920012000,운남동,2920012000102630000,1,대지,263,,광주광역시 광산구 운남동 263,292004289104,광주광역시 광산구 목련로219번길,125,1,2920012000102630000003938,,광주광역시 광산구 목련로219번길 125-1,506816,62319,,,,126.823189974039,35.1771622495602
11965706,아주커치킨계림점,계림점,Q,음식,Q05,닭/오리요리,Q05A08,후라이드/양념치킨,I56193,치킨 전문점,29,광주광역시,29110,동구,2911052500,충장동,2911010700,장동,2911010700100690000,1,대지,69,,광주광역시 동구 장동 69,291104277173,광주광역시 동구 제봉로110번길,15,1,2911010700100690000009718,,광주광역시 동구 제봉로110번길 15-1,501060,61436,,1,,126.923507294636,35.1490526079023
11965751,BBQ치킨산남중앙점,산남중앙점,Q,음식,Q05,닭/오리요리,Q05A08,후라이드/양념치킨,I56193,치킨 전문점,43,충청북도,43112,청주시 서원구,4311255000,산남동,4311210400,산남동,4311210400106790000,1,대지,679,,충청북도 청주시 서원구 산남동 679,431123237026,충청북도 청주시 서원구 두꺼비로,53,,4311310600106790000023468,푸르지오아파트,충청북도 청주시 서원구 두꺼비로 53,362862,28631,,1,,127.464051870249,36.6094757645217
11965772,마이깐풍기봉명점,봉명점,Q,음식,Q05,닭/오리요리,Q05A08,후라이드/양념치킨,I56193,치킨 전문점,43,충청북도,43113,청주시 흥덕구,4311375600,봉명2.송정동,4311311500,봉명동,4311311500126910000,1,대지,2691,,충청북도 청주시 흥덕구 봉명동 2691,431134511253,충청북도 청주시 흥덕구 덕암로114번길,33,,4311311500126910000015020,,충청북도 청주시 흥덕구 덕암로114번길 33,361300,28465,,1,,127.460954333546,36.6497729377164
11965843,훌랄라참숯바베큐치킨용정1점,용정1점,Q,음식,Q05,닭/오리요리,Q05A08,후라이드/양념치킨,I56193,치킨 전문점,43,충청북도,43111,청주시 상당구,4311172000,용암1동,4311112500,용정동,4311112500111230000,1,대지,1123,,충청북도 청주시 상당구 용정동 1123,431114844099,충청북도 청주시 상당구 용정로18번길,7,11,4311112500111230000000001,,충청북도 청주시 상당구 용정로18번길 7-11,360182,28748,,1,,127.516334475994,36.6290304635999
11965882,BHC치킨,조대산수점,Q,음식,Q05,닭/오리요리,Q05A08,후라이드/양념치킨,I56193,치킨 전문점,29,광주광역시,29110,동구,2911062000,지산1동,2911011100,지산동,2911011100104870008,1,대지,487,8,광주광역시 동구 지산동 487-8,291103159014,광주광역시 동구 지산로,29,,2911011100104870008010847,,광주광역시 동구 지산로 29,501150,61448,,,,126.931582933086,35.1466632841955
11965895,장모님양념치킨,대방본점,Q,음식,Q05,닭/오리요리,Q05A08,후라이드/양념치킨,I56193,치킨 전문점,48,경상남도,48123,창원시 성산구,4812354000,사파동,4812310500,대방동,4812310500103570000,1,대지,357,,경상남도 창원시 성산구 대방동 357,481233328008,경상남도 창원시 성산구 대정로,149,,4812310500103570000034553,대방개나리1차아파트,경상남도 창원시 성산구 대정로 149,642753,51463,,,,128.707824596857,35.2128651976791
11965962,울산통닭,,Q,음식,Q05,닭/오리요리,Q05A08,후라이드/양념치킨,I56193,치킨 전문점,48,경상남도,48310,거제시,4831058000,고현동,4831010900,고현동,4831010900101000027,1,대지,100,27,경상남도 거제시 고현동 100-27,483103337005,경상남도 거제시 거제중앙로,1887,8,4831010900101000027024544,,경상남도 거제시 거제중앙로 1887-8,656930,53254,,1,,128.623325152857,34.8864486378046
11965996,오리온통닭,,Q,음식,Q05,닭/오리요리,Q05A08,후라이드/양념치킨,I56193,치킨 전문점,48,경상남도,48310,거제시,4831053000,능포동,4831010100,능포동,4831010100106600002,1,대지,660,2,경상남도 거제시 능포동 660-2,483103337014,경상남도 거제시 능포로,150,,4831010100106600002038563,,경상남도 거제시 능포로 150,656900,53314,,1,,128.732191620284,34.8768722016073
11966108,훌랄라참숯바베큐대소1점,대소1점,Q,음식,Q05,닭/오리요리,Q05A08,후라이드/양념치킨,I56193,치킨 전문점,43,충청북도,43770,음성군,4377034000,대소면,4377034021,대소면,4377034021101200004,1,대지,120,4,충청북도 음성군 대소면 오산리 120-4,437703247039,충청북도 음성군 대소면 오태로,94,,4377034021101200004175787,,충청북도 음성군 대소면 오태로 94,369824,27668,,1,,127.485405247459,36.9676747224047
11966116,굽네치킨,서곡지구점,Q,음식,Q05,닭/오리요리,Q05A08,후라이드/양념치킨,I56193,치킨 전문점,45,전라북도,45111,전주시 완산구,4511173000,효자5동,4511114200,효자동3가,4511114200114570003,1,대지,1457,3,전라북도 전주시 완산구 효자동3가 1457-3,451114598172,전라북도 전주시 완산구 서곡1길,1,4,4511114200114570003024671,,전라북도 전주시 완산구 서곡1길 1-4,560870,54956,,,,127.100405036662,35.834643651355
11966139,햇살치킨문흥점,문흥점,Q,음식,Q05,닭/오리요리,Q05A08,후라이드/양념치킨,I56193,치킨 전문점,29,광주광역시,29170,북구,2917065600,문흥1동,2917011200,문흥동,2917011200109980005,1,대지,998,5,광주광역시 북구 문흥동 998-5,291703162031,광주광역시 북구 서하로,377,,2917011200109980005036512,,광주광역시 북구 서하로 377,500110,61129,,1,,126.921660066852,35.1859029895279
11966177,썸타닭,,Q,음식,Q05,닭/오리요리,Q05A08,후라이드/양념치킨,I56193,치킨 전문점,29,광주광역시,29170,북구,2917066200,두암2동,2917011400,두암동,2917011400108270025,1,대지,827,25,광주광역시 북구 두암동 827-25,291703162002,광주광역시 북구 군왕로,132,,2917011400108270025038285,,광주광역시 북구 군왕로 132,500100,61155,,1,,126.932984253549,35.1729782266569
11966224,두마리양동시장통닭,,Q,음식,Q05,닭/오리요리,Q05A08,후라이드/양념치킨,I56193,치킨 전문점,29,광주광역시,29155,남구,2915571000,효덕동,2915510800,진월동,2915510800103300091,1,대지,330,91,광주광역시 남구 진월동 330-91,291554283024,광주광역시 남구 광복마을5길,21,,2915510800103300091015280,국일관,광주광역시 남구 광복마을5길 21,503841,61735,,1,,126.894603220784,35.1236615905145
11966311,두마리양동시장통닭,,Q,음식,Q05,닭/오리요리,Q05A08,후라이드/양념치킨,I56193,치킨 전문점,29,광주광역시,29170,북구,2917067600,오치1동,2917011500,오치동,2917011500110250011,1,대지,1025,11,광주광역시 북구 오치동 1025-11,291703162031,광주광역시 북구 서하로,295,1,2917011500110250011001849,,광주광역시 북구 서하로 295-1,500130,61123,,1,,126.912980687676,35.1871414218797
11966338,닭큐멘터리,,Q,음식,Q05,닭/오리요리,Q05A08,후라이드/양념치킨,I56193,치킨 전문점,31,울산광역시,31110,중구,3111063000,병영2동,3111011400,서동,3111011400102770000,1,대지,277,,울산광역시 중구 서동 277,311103169012,울산광역시 중구 병영로,45,,3111011400102770000012399,,울산광역시 중구 병영로 45,681290,44489,,1,,129.345769916425,35.5735469793791
11966663,교촌치킨한림점,한림점,Q,음식,Q05,닭/오리요리,Q05A08,후라이드/양념치킨,I56193,치킨 전문점,50,제주특별자치도,50110,제주시,5011025000,한림읍,5011025024,한림읍,5011025024115820008,1,대지,1582,8,제주특별자치도 제주시 한림읍 한림리 1582-8,501103349210,제주특별자치도 제주시 한림읍 한림중앙로,47,,5011025024015820008025075,,제주특별자치도 제주시 한림읍 한림중앙로 47,695932,63029,,1,,126.265722806654,33.4105993598553
11967109,또래오래,광혜원점,Q,음식,Q05,닭/오리요리,Q05A08,후라이드/양념치킨,I56193,치킨 전문점,43,충청북도,43750,진천군,4375037000,광혜원면,4375037027,광혜원면,4375037027105290015,1,대지,529,15,충청북도 진천군 광혜원면 광혜원리 529-15,437504535424,충청북도 진천군 광혜원면 화랑1길,16,,4375037027105290015011494,,충청북도 진천군 광혜원면 화랑1길 16,365833,27802,,,,127.437821827368,36.9935294286554
11967184,조은친구,,Q,음식,Q05,닭/오리요리,Q05A08,후라이드/양념치킨,I56193,치킨 전문점,44,충청남도,44200,아산시,4420038000,인주면,4420038025,인주면,4420038025104200011,1,대지,420,11,충청남도 아산시 인주면 밀두리 420-11,442003253098,충청남도 아산시 인주면 현대로,1339,,4420038025104200011000001,,충청남도 아산시 인주면 현대로 1339,336831,31434,,1,,126.88804741828,36.8718121345863
11967246,교촌치킨,증평점,Q,음식,Q05,닭/오리요리,Q05A08,후라이드/양념치킨,I56193,치킨 전문점,43,충청북도,43785,증평군,4378525000,증평읍,4378525030,증평읍,4378525030100080001,1,대지,8,1,충청북도 증평군 증평읍 초중리 8-1,437453244011,충청북도 증평군 증평읍 삼보로,112,,4374525030100080001008845,태영렉카,충청북도 증평군 증평읍 삼보로 112,368910,27938,,,,127.576465293053,36.7804182357676
11967253,토시래,평택독곡점,Q,음식,Q05,닭/오리요리,Q05A08,후라이드/양념치킨,I56193,치킨 전문점,41,경기도,41220,평택시,4122056000,송북동,4122011100,독곡동,4122011100105030003,1,대지,503,3,경기도 평택시 독곡동 503-3,412203188090,경기도 평택시 지산천로,10,,4122011100103080009000001,,경기도 평택시 지산천로 10,459100,17720,,,,127.065378417053,37.0819067937909
11967430,에그파파치킨,초평점,Q,음식,Q05,닭/오리요리,Q05A08,후라이드/양념치킨,I56193,치킨 전문점,43,충청북도,43750,진천군,4375032000,초평면,4375032024,초평면,4375032024105920003,1,대지,592,3,충청북도 진천군 초평면 용정리 592-3,437503014049,충청북도 진천군 초평면 초동로,13,,4375032024105920003030078,,충청북도 진천군 초평면 초동로 13,365853,27858,,,,127.523775993467,36.8455999769015
11967746,지코바치킨운암점,운암점,Q,음식,Q05,닭/오리요리,Q05A08,후라이드/양념치킨,I56193,치킨 전문점,29,광주광역시,29170,북구,2917060100,운암1동,2917010900,운암동,2917010900109300014,1,대지,930,14,광주광역시 북구 운암동 930-14,291704286342,광주광역시 북구 서강로62번길,41,,2917010900109300014019577,,광주광역시 북구 서강로62번길 41,500170,61257,,1,,126.873580293054,35.1771726393589
11967905,조선치킨황등점,황등점,Q,음식,Q05,닭/오리요리,Q05A08,후라이드/양념치킨,I56193,치킨 전문점,45,전라북도,45140,익산시,4514032000,황등면,4514032021,황등면,4514032021109090020,1,대지,909,20,전라북도 익산시 황등면 황등리 909-20,451403269050,전라북도 익산시 황등면 황등로,125,,4514032021109090020019609,황등치과,전라북도 익산시 황등면 황등로 125,570814,54533,,1,,126.944205558251,36.0032195305468
11967922,또봉이통닭함열점,함열점,Q,음식,Q05,닭/오리요리,Q05A08,후라이드/양념치킨,I56193,치킨 전문점,45,전라북도,45140,익산시,4514025000,함열읍,4514025021,함열읍,4514025021102110002,1,대지,211,2,전라북도 익산시 함열읍 와리 211-2,451404608405,전라북도 익산시 함열읍 함열9길,36,,4514025021102110002040609,신일장미아파트,전라북도 익산시 함열읍 함열9길 36,570803,54511,,1,,126.96515339969,36.0773599643686
11967934,페리카나,인천지역본부,Q,음식,Q05,닭/오리요리,Q05A08,후라이드/양념치킨,I56193,치킨 전문점,41,경기도,41390,시흥시,4139053100,신현동,4139010300,방산동,4139010300106800000,1,대지,680,,경기도 시흥시 방산동 680,413903199035,경기도 시흥시 신현로,305,,4139010300106800000009747,,경기도 시흥시 신현로 305,429030,14960,,,,126.764149393926,37.4097174574517
11967977,깐풍집서면점,서면점,Q,음식,Q05,닭/오리요리,Q05A08,후라이드/양념치킨,I56193,치킨 전문점,26,부산광역시,26230,부산진구,2623052000,부전2동,2623010300,부전동,2623010300101680006,1,대지,168,6,부산광역시 부산진구 부전동 168-6,262304187685,부산광역시 부산진구 중앙대로680번가길,81,,2623010300101680006010088,,부산광역시 부산진구 중앙대로680번가길 81,614030,47292,,1,,129.061040208395,35.1570941279623
11968323,쭈노치킨가게,,Q,음식,Q05,닭/오리요리,Q05A08,후라이드/양념치킨,I56193,치킨 전문점,11,서울특별시,11305,강북구,1130553500,미아동,1130510100,미아동,1130510100103090002,1,대지,309,2,서울특별시 강북구 미아동 309-2,113054124340,서울특별시 강북구 솔매로46길,48,,1130510100103090002031136,,서울특별시 강북구 솔매로46길 48,142812,01170,,1,,127.026109532098,37.6240029827624
11968347,비행기탄꼬꼬누룽지통닭,송정역점,Q,음식,Q05,닭/오리요리,Q05A08,후라이드/양념치킨,I56193,치킨 전문점,11,서울특별시,11500,강서구,1150062000,공항동,1150010800,공항동,1150010800100720030,1,대지,72,30,서울특별시 강서구 공항동 72-30,115002005007,서울특별시 강서구 공항대로,14,1,1150010800100720030006021,,서울특별시 강서구 공항대로 14-1,157812,07622,,,,126.808848859713,37.561262668487
11968445,BBQ치킨피자,,Q,음식,Q05,닭/오리요리,Q05A08,후라이드/양념치킨,I56193,치킨 전문점,45,전라북도,45180,정읍시,4518053500,내장상동,4518010300,상동,4518010300102550031,1,대지,255,31,전라북도 정읍시 상동 255-31,451803270044,전라북도 정읍시 충정로,16,,4518010300102550031010275,내장산빌딩,전라북도 정읍시 충정로 16,580800,56194,,1,,126.872671236373,35.5561119076694
11968578,대왕통닭,,Q,음식,Q05,닭/오리요리,Q05A08,후라이드/양념치킨,I56193,치킨 전문점,45,전라북도,45180,정읍시,4518054500,시기동,4518010400,시기동,4518010400103400004,1,대지,340,4,전라북도 정읍시 시기동 340-4,451803270043,전라북도 정읍시 초산로,72,,4518010400103400004082188,수입소고기백화점,전라북도 정읍시 초산로 72,580060,56164,,1,,126.855106674457,35.5650047166402
11968586,하림맥시칸치킨상동LG점,상동LG점,Q,음식,Q05,닭/오리요리,Q05A08,후라이드/양념치킨,I56193,치킨 전문점,45,전라북도,45180,정읍시,4518053500,내장상동,4518010300,상동,4518010300103190015,1,대지,319,15,전라북도 정읍시 상동 319-15,451804610428,전라북도 정읍시 상사3길,47,,4518010300103190015012601,상동LG아파트,전라북도 정읍시 상사3길 47,580800,56188,,1,,126.866165069457,35.5607107579059
11968841,하림맥시칸치킨,,Q,음식,Q05,닭/오리요리,Q05A08,후라이드/양념치킨,I56193,치킨 전문점,46,전라남도,46790,화순군,4679025000,화순읍,4679025031,화순읍,4679025031106600001,1,대지,660,1,전라남도 화순군 화순읍 삼천리 660-1,467903291036,전라남도 화순군 화순읍 칠충로,86,,4679025031106600001041585,,전라남도 화순군 화순읍 칠충로 86,519807,58137,,1,,126.980227804039,35.0571854109452
11968868,썬더치킨,,Q,음식,Q05,닭/오리요리,Q05A08,후라이드/양념치킨,I56193,치킨 전문점,46,전라남도,46770,고흥군,4677025000,고흥읍,4677025028,고흥읍,4677025028102190062,1,대지,219,62,전라남도 고흥군 고흥읍 서문리 219-62,467704667476,전라남도 고흥군 고흥읍 여산당촌길,6,1,4677025028102190062030189,,전라남도 고흥군 고흥읍 여산당촌길 6-1,548805,59540,,1,,127.282603451744,34.6076697671345
11969194,장터이모통닭,,Q,음식,Q05,닭/오리요리,Q05A08,후라이드/양념치킨,I56193,치킨 전문점,26,부산광역시,26470,연제구,2647063000,거제3동,2647010100,거제동,2647010100104850002,1,대지,485,2,부산광역시 연제구 거제동 485-2,264704211023,부산광역시 연제구 거제시장로14번길,23,,2647010100104850002004314,,부산광역시 연제구 거제시장로14번길 23,611070,47544,,1,,129.07246290921,35.1819440060327
11969309,더썬치킨구남점,구남점,Q,음식,Q05,닭/오리요리,Q05A08,후라이드/양념치킨,I56193,치킨 전문점,26,부산광역시,26530,사상구,2653059100,모라1동,2653010200,모라동,2653010200113680001,1,대지,1368,1,부산광역시 사상구 모라동 1368-1,265302006008,부산광역시 사상구 백양대로,1000,,2653010200113680001003746,,부산광역시 사상구 백양대로 1000,617080,46927,,1,,128.994166639314,35.1951143270401
11969477,네네치킨태인점,태인점,Q,음식,Q05,닭/오리요리,Q05A08,후라이드/양념치킨,I56193,치킨 전문점,45,전라북도,45180,정읍시,4518039000,태인면,4518039030,태인면,4518039030101030009,1,대지,103,9,전라북도 정읍시 태인면 태창리 103-9,451803270050,전라북도 정읍시 태인면 태인로,32,,4518039030101030009087300,김밥천국,전라북도 정읍시 태인면 태인로 32,580921,56115,,1,,126.942084624875,35.651497512422
11969677,현치킨나라,,Q,음식,Q05,닭/오리요리,Q05A08,후라이드/양념치킨,I56193,치킨 전문점,45,전라북도,45180,정읍시,4518054500,시기동,4518010400,시기동,4518010400101940007,1,대지,194,7,전라북도 정읍시 시기동 194-7,451804610215,전라북도 정읍시 대흥3길,21,13,4518010400101940007017151,삼화그린아파트,전라북도 정읍시 대흥3길 21-13,580713,56162,,1,,126.850124133872,35.5655341426892
11969693,부암동가는길,,Q,음식,Q05,닭/오리요리,Q05A08,후라이드/양념치킨,I56193,치킨 전문점,11,서울특별시,11110,종로구,1111055000,부암동,1111018400,부암동,1111018400102370029,1,대지,237,29,서울특별시 종로구 부암동 237-29,111104100094,서울특별시 종로구 백석동길,11,4,1111018400102370029024180,,서울특별시 종로구 백석동길 11-4,110817,03020,,1,,126.965566213931,37.5932760633635
11969724,멕시카나치킨불로점,불로점,Q,음식,Q05,닭/오리요리,Q05A08,후라이드/양념치킨,I56193,치킨 전문점,27,대구광역시,27140,동구,2714062000,불로.봉무동,2714010600,불로동,2714010600112680000,1,대지,1268,,대구광역시 동구 불로동 1268,271404226331,대구광역시 동구 팔공로37길,2,,2714010600112680000027348,,대구광역시 동구 팔공로37길 2,701806,41029,,1,,128.640761934673,35.915888764917
11969725,DDCChicken모라1호점,모라1호점,Q,음식,Q05,닭/오리요리,Q05A08,후라이드/양념치킨,I56193,치킨 전문점,26,부산광역시,26530,사상구,2653059100,모라1동,2653010200,모라동,2653010200104220005,1,대지,422,5,부산광역시 사상구 모라동 422-5,265304217142,부산광역시 사상구 모라로110번길,45,,2653010200104220005003418,수정빌딩,부산광역시 사상구 모라로110번길 45,617080,46932,,1,,128.993514742689,35.1848618150502
11969810,처갓집양념치킨,아포점,Q,음식,Q05,닭/오리요리,Q05A08,후라이드/양념치킨,I56193,치킨 전문점,47,경상북도,47150,김천시,4715025000,아포읍,4715025028,아포읍,4715025028110470000,1,대지,1047,,경상북도 김천시 아포읍 국사리 1047,471504718927,경상북도 김천시 아포읍 한지1길,38,10,4715025028110470000000001,,경상북도 김천시 아포읍 한지1길 38-10,740861,39675,,,,128.261330356759,36.159748092626
11969862,멕시카나치킨,김천혁신점,Q,음식,Q05,닭/오리요리,Q05A08,후라이드/양념치킨,I56193,치킨 전문점,47,경상북도,47150,김천시,4715064000,율곡동,4715012000,율곡동,4715012000107130000,1,대지,713,,경상북도 김천시 율곡동 713,471503306072,경상북도 김천시 용전3로,21,,4715012000107130000000001,,경상북도 김천시 용전3로 21,740220,39660,,,,128.19308281806,36.1213832747853
11969991,봉이치킨원동점,원동점,Q,음식,Q05,닭/오리요리,Q05A08,후라이드/양념치킨,I56193,치킨 전문점,41,경기도,41370,오산시,4137057000,대원동,4137010300,원동,4137010300108050001,1,대지,805,1,경기도 오산시 원동 805-1,413702012003,경기도 오산시 남부대로,330,14,4137010300108050001001872,청구아파트,경기도 오산시 남부대로 330-14,447735,18146,,5,,127.07052502726,37.1347616674952
11970070,사이통닭,,Q,음식,Q05,닭/오리요리,Q05A08,후라이드/양념치킨,I56193,치킨 전문점,50,제주특별자치도,50110,제주시,5011066000,노형동,5011012200,노형동,5011012200110670008,1,대지,1067,8,제주특별자치도 제주시 노형동 1067-8,501104848527,제주특별자치도 제주시 월랑로4길,11,,5011012200110670008000001,,제주특별자치도 제주시 월랑로4길 11,690803,63097,,1,,126.478612837176,33.4882776629472
11970170,페리카나설악동점,설악동점,Q,음식,Q05,닭/오리요리,Q05A08,후라이드/양념치킨,I56193,치킨 전문점,42,강원도,42210,속초시,4221060000,대포동,4221011200,설악동,4221011200103420117,1,대지,342,117,강원도 속초시 설악동 342-117,422103223017,강원도 속초시 청봉로,77,,4221011200103420117003523,,강원도 속초시 청봉로 77,217120,24904,,1,,128.538494842943,38.1654397981515
11970222,땡큐맘치킨,진주혁신도시점,Q,음식,Q05,닭/오리요리,Q05A08,후라이드/양념치킨,I56193,치킨 전문점,48,경상남도,48170,진주시,4817075000,충무공동,4817013700,충무공동,4817013700102340000,1,대지,234,,경상남도 진주시 충무공동 234,481703350091,경상남도 진주시 충의로,67,,4817013700102340000000001,혁신도시엘에이치아파트5단지,경상남도 진주시 충의로 67,660031,52853,,,,128.151555688508,35.1791153151857
11970304,굽네치킨서남금동점,서남금동점,Q,음식,Q05,닭/오리요리,Q05A08,후라이드/양념치킨,I56193,치킨 전문점,29,광주광역시,29110,동구,2911065500,서남동,2911011400,금동,2911011400100130003,1,대지,13,3,광주광역시 동구 금동 13-3,291104277121,광주광역시 동구 백서로125번길,28,1,2911011400100130003007612,,광주광역시 동구 백서로125번길 28-1,501807,61487,,1,,126.917973408527,35.1442800240911
11970307,굽네치킨,상주냉림무양점,Q,음식,Q05,닭/오리요리,Q05A08,후라이드/양념치킨,I56193,치킨 전문점,47,경상북도,47250,상주시,4725054000,계림동,4725010500,냉림동,4725010500100740000,1,대지,74,,경상북도 상주시 냉림동 74,472504733149,경상북도 상주시 냉림2길,31,5,4725010500100740000000001,,경상북도 상주시 냉림2길 31-5,742070,37176,,,,128.164316046802,36.4215328690866
11970344,교촌치킨운천신봉점,운천신봉점,Q,음식,Q05,닭/오리요리,Q05A08,후라이드/양념치킨,I56193,치킨 전문점,43,충청북도,43113,청주시 흥덕구,4311370000,운천.신봉동,4311310400,운천동,4311310400113660000,1,대지,1366,,충청북도 청주시 흥덕구 운천동 1366,431133237036,충청북도 청주시 흥덕구 사운로,244,1,4311310400113660000014339,,충청북도 청주시 흥덕구 사운로 244-1,361842,28468,,1,,127.474911175658,36.6499434200121
11970349,교촌치킨,내당점,Q,음식,Q05,닭/오리요리,Q05A08,후라이드/양념치킨,I56193,치킨 전문점,27,대구광역시,27170,서구,2717051000,내당1동,2717010100,내당동,2717010100102190007,1,대지,219,7,대구광역시 서구 내당동 219-7,271702007002,대구광역시 서구 달구벌대로,1795,1,2717010100102190007013049,,대구광역시 서구 달구벌대로 1795-1,703060,41866,,,,128.561196921843,35.8594677054842
11970351,교촌치킨호계2호점,호계2호점,Q,음식,Q05,닭/오리요리,Q05A08,후라이드/양념치킨,I56193,치킨 전문점,31,울산광역시,31200,북구,3120052000,농소2동,3120010500,신천동,3120010500101070004,1,대지,107,4,울산광역시 북구 신천동 107-4,312003172018,울산광역시 북구 신천로,53,2,3120010500101070004000001,,울산광역시 북구 신천로 53-2,683803,44218,,1,,129.349538263957,35.6429316501891
11970361,놀부옛날통닭강남양재역통닭점,강남양재역통닭점,Q,음식,Q05,닭/오리요리,Q05A08,후라이드/양념치킨,I56193,치킨 전문점,11,서울특별시,11680,강남구,1168065500,도곡1동,1168011800,도곡동,1168011800109570011,1,대지,957,11,서울특별시 강남구 도곡동 957-11,116802000003,서울특별시 강남구 남부순환로,2615,,1168011800109570011000001,극동스타클래스,서울특별시 강남구 남부순환로 2615,135270,06267,,1,,127.035750617195,37.4851677024556
11970369,교촌치킨,오천점,Q,음식,Q05,닭/오리요리,Q05A08,후라이드/양념치킨,I56193,치킨 전문점,47,경상북도,47111,포항시 남구,4711125600,오천읍,4711125621,오천읍,4711125621109130002,1,대지,913,2,경상북도 포항시 남구 오천읍 원리 913-2,471113303037,경상북도 포항시 남구 오천읍 원동로,60,,4711125621109130002000001,,경상북도 포항시 남구 오천읍 원동로 60,790911,37884,,,,129.403051345043,35.9685045411733
11970389,놀부옛날통닭군산수송통닭점,군산수송통닭점,Q,음식,Q05,닭/오리요리,Q05A08,후라이드/양념치킨,I56193,치킨 전문점,45,전라북도,45130,군산시,4513069000,수송동,4513014100,수송동,4513014100108710003,1,대지,871,3,전라북도 군산시 수송동 871-3,451304604638,전라북도 군산시 수송안9길,5,,4513014100108710003000001,,전라북도 군산시 수송안9길 5,573370,54100,,1,,126.71881096352,35.9620717931824
11970476,BHC치킨경북예천점,경북예천점,Q,음식,Q05,닭/오리요리,Q05A08,후라이드/양념치킨,I56193,치킨 전문점,47,경상북도,47900,예천군,4790025000,예천읍,4790025025,예천읍,4790025025102230036,1,대지,223,36,경상북도 예천군 예천읍 남본리 223-36,479004769040,경상북도 예천군 예천읍 군청앞길,11,,4790025025102230036043081,새황금슈퍼,경상북도 예천군 예천읍 군청앞길 11,757803,36828,,1,,128.453550625245,36.6561401985141
11970517,BBQ치킨대천파레브점,대천파레브점,Q,음식,Q05,닭/오리요리,Q05A08,후라이드/양념치킨,I56193,치킨 전문점,44,충청남도,44180,보령시,4418056500,대천5동,4418011000,신흑동,4418011000122740001,1,대지,2274,1,충청남도 보령시 신흑동 2274-1,441804556703,충청남도 보령시 해수욕장8길,70,,4418011000122740001000001,,충청남도 보령시 해수욕장8길 70,355943,33489,,1,,126.51318559973,36.3122871707816
11970529,BBQ치킨,난곡점,Q,음식,Q05,닭/오리요리,Q05A08,후라이드/양념치킨,I56193,치킨 전문점,11,서울특별시,11620,관악구,1162071500,난향동,1162010200,신림동,1162010200117380001,1,대지,1738,1,서울특별시 관악구 신림동 1738-1,116203120003,서울특별시 관악구 난곡로,98,,1162010200117380001000001,파로스프라자,서울특별시 관악구 난곡로 98,151017,08860,B,,,126.919433119329,37.4639235041747
11970532,BBQ치킨군산산북소룡점,군산산북소룡점,Q,음식,Q05,닭/오리요리,Q05A08,후라이드/양념치킨,I56193,치킨 전문점,45,전라북도,45130,군산시,4513072000,미성동,4513015100,산북동,4513015100135360005,1,대지,3536,5,전라북도 군산시 산북동 3536-5,451304605035,전라북도 군산시 칠성7길,96,,4513015100135360005000001,,전라북도 군산시 칠성7길 96,573878,54163,,1,,126.679879179426,35.9693104239358
11971504,임동통닭,,Q,음식,Q05,닭/오리요리,Q05A08,후라이드/양념치킨,I56193,치킨 전문점,47,경상북도,47170,안동시,4717040000,임동면,4717040021,임동면,4717040021110250000,1,대지,1025,,경상북도 안동시 임동면 중평리 1025,471704721649,경상북도 안동시 임동면 선착장길,6,,4717040021110250000006458,,경상북도 안동시 임동면 선착장길 6,760853,36732,,1,,128.919331307049,36.5665901943766
11971550,소문난통닭5900,,Q,음식,Q05,닭/오리요리,Q05A08,후라이드/양념치킨,I56193,치킨 전문점,41,경기도,41190,부천시,4119061000,중동,4119010900,상동,4119010900103260001,1,대지,326,1,경기도 부천시 상동 326-1,411904352060,경기도 부천시 부일로298번길,7,,4119510900103260001038884,,경기도 부천시 부일로298번길 7,420811,14625,,1,,126.763175957912,37.4880888697629
11971627,네네치킨,온천3동점,Q,음식,Q05,닭/오리요리,Q05A08,후라이드/양념치킨,I56193,치킨 전문점,26,부산광역시,26260,동래구,2626057000,온천3동,2626010800,온천동,2626010800114540024,1,대지,1454,24,부산광역시 동래구 온천동 1454-24,262604190487,부산광역시 동래구 충렬대로126번길,19,,2626010800114540024010720,,부산광역시 동래구 충렬대로126번길 19,607060,47823,,,,129.07437093348,35.2051197463046
11971885,또래오래,금암점,Q,음식,Q05,닭/오리요리,Q05A08,후라이드/양념치킨,I56193,치킨 전문점,44,충청남도,44250,계룡시,4425031000,두마면,4425031021,두마면,4425031021101180022,1,대지,118,22,충청남도 계룡시 두마면 두계리 118-22,442503255019,충청남도 계룡시 두마면 사계로,44,,4425031021101180022000002,,충청남도 계룡시 두마면 사계로 44,321914,32836,,1,,127.264718409689,36.2677750465824
11971960,옛날통닭,,Q,음식,Q05,닭/오리요리,Q05A08,후라이드/양념치킨,I56193,치킨 전문점,41,경기도,41500,이천시,4150036000,모가면,4150036021,모가면,4150036021101100025,1,대지,110,25,경기도 이천시 모가면 진가리 110-25,415004421202,경기도 이천시 모가면 대월로63번길,70,,4150036021101100025023842,,경기도 이천시 모가면 대월로63번길 70,467872,17408,,1,,127.480952068827,37.1715212912987
11971965,페리카나치킨,,Q,음식,Q05,닭/오리요리,Q05A08,후라이드/양념치킨,I56193,치킨 전문점,46,전라남도,46880,장성군,4688040000,북하면,4688040025,북하면,4688040025103790001,1,대지,379,1,전라남도 장성군 북하면 약수리 379-1,468803299016,전라남도 장성군 북하면 백양로,904,,4688040025103790001025108,,전라남도 장성군 북하면 백양로 904,515854,57205,,1,,126.88277713368,35.4078094427947
11972448,추억의옛날통닭,,Q,음식,Q05,닭/오리요리,Q05A08,후라이드/양념치킨,I56193,치킨 전문점,41,경기도,41360,남양주시,4136025300,진접읍,4136025328,진접읍,4136025328109720001,1,대지,972,1,경기도 남양주시 진접읍 금곡리 972-1,413603197067,경기도 남양주시 진접읍 해밀예당3로,142,,4136025328109720001000001,,경기도 남양주시 진접읍 해밀예당3로 142,472861,12055,,1,,127.194675299895,37.721640015747
11973057,장터치킨,,Q,음식,Q05,닭/오리요리,Q05A08,후라이드/양념치킨,I56193,치킨 전문점,28,인천광역시,28200,남동구,2820057000,만수2동,2820010300,만수동,2820010300108700007,1,대지,870,7,인천광역시 남동구 만수동 870-7,282004259310,인천광역시 남동구 만수로19번길,3,,2820010300108700008029896,동성빌딩,인천광역시 남동구 만수로19번길 3,405240,21524,,1,,126.730821634248,37.4588855534157
11973110,투존치킨&피자,&피자,Q,음식,Q05,닭/오리요리,Q05A08,후라이드/양념치킨,I56193,치킨 전문점,44,충청남도,44270,당진시,4427039000,송산면,4427039031,송산면,4427039031111090000,1,대지,1109,,충청남도 당진시 송산면 유곡리 1109,442704832296,충청남도 당진시 송산면 유곡6길,23,,4427039031111090000000001,,충청남도 당진시 송산면 유곡6길 23,343835,31710,,1,,126.691834871411,36.9631154496105
11973233,그시절옛날통닭,,Q,음식,Q05,닭/오리요리,Q05A08,후라이드/양념치킨,I56193,치킨 전문점,47,경상북도,47113,포항시 북구,4711369000,두호동,4711312000,두호동,4711312000110970002,1,대지,1097,2,경상북도 포항시 북구 두호동 1097-2,471134712097,경상북도 포항시 북구 대곡로43번길,10,,4711312100110970002000001,,경상북도 포항시 북구 대곡로43번길 10,791804,37618,,1,,129.37255275165,36.0670467918474
11973267,용천통닭,,Q,음식,Q05,닭/오리요리,Q05A08,후라이드/양념치킨,I56193,치킨 전문점,29,광주광역시,29170,북구,2917067300,매곡동,2917011700,매곡동,2917011700102140012,1,대지,214,12,광주광역시 북구 매곡동 214-12,291703162014,광주광역시 북구 매곡로,60,,2917011700102140012036923,호반맨션,광주광역시 북구 매곡로 60,500815,61059,,1,,126.894280311666,35.1905235804311
11973309,처갓집양념치킨남천점,남천점,Q,음식,Q05,닭/오리요리,Q05A08,후라이드/양념치킨,I56193,치킨 전문점,26,부산광역시,26500,수영구,2650066000,남천1동,2650010500,남천동,2650010500100120019,1,대지,12,19,부산광역시 수영구 남천동 12-19,265003138008,부산광역시 수영구 남천동로,7,,2650010500100140002017498,,부산광역시 수영구 남천동로 7,613814,48307,,,,129.10998613599,35.1429364535508
11973327,옛날통닭,,Q,음식,Q05,닭/오리요리,Q05A08,후라이드/양념치킨,I56193,치킨 전문점,48,경상남도,48250,김해시,4825059000,삼안동,4825011900,삼방동,4825011900101840004,1,대지,184,4,경상남도 김해시 삼방동 184-4,482504805900,경상남도 김해시 활천로285번길,17,,4825011900101840004086953,,경상남도 김해시 활천로285번길 17,621909,50818,,1,,128.909340606384,35.244528541354
11973350,BHC치킨,대구삼성라이온즈파크점,Q,음식,Q05,닭/오리요리,Q05A08,후라이드/양념치킨,I56193,치킨 전문점,27,대구광역시,27260,수성구,2726068000,고산2동,2726012300,연호동,2726012300101540005,1,대지,154,5,대구광역시 수성구 연호동 154-5,272602007002,대구광역시 수성구 달구벌대로,2950,,2726012300101540005000001,대공원역,대구광역시 수성구 달구벌대로 2950,706200,42250,,,,128.680001175168,35.8426122938462
11973417,옛날통닭,석봉점,Q,음식,Q05,닭/오리요리,Q05A08,후라이드/양념치킨,I56193,치킨 전문점,30,대전광역시,30230,대덕구,3023056000,석봉동,3023011100,석봉동,3023011100103050011,1,대지,305,11,대전광역시 대덕구 석봉동 305-11,302302010001,대전광역시 대덕구 대덕대로,1586,,3023011100103050011022927,,대전광역시 대덕구 대덕대로 1586,306810,34317,,1,,127.423975086742,36.4501056228124
11973485,오치킨,,Q,음식,Q05,닭/오리요리,Q05A08,후라이드/양념치킨,I56193,치킨 전문점,41,경기도,41800,연천군,4180032000,청산면,4180032022,청산면,4180032022105270005,1,대지,527,5,경기도 연천군 청산면 대전리 527-5,418003215065,경기도 연천군 청산면 청창로,175,,4180032022105270005008442,,경기도 연천군 청산면 청창로 175,486852,11022,,,,127.084072851793,38.0094782334924
11973661,깻잎두마리치킨,,Q,음식,Q05,닭/오리요리,Q05A08,후라이드/양념치킨,I56193,치킨 전문점,41,경기도,41590,화성시,4159025900,향남읍,4159025939,향남읍,4159025939104960010,1,대지,496,10,경기도 화성시 향남읍 행정리 496-10,415904431350,경기도 화성시 향남읍 행정죽전로1길,11,1,4159025939104960010000001,,경기도 화성시 향남읍 행정죽전로1길 11-1,445926,18602,,1,,126.92031733518,37.1244146076629
11973702,네네치킨대정점,대정점,Q,음식,Q05,닭/오리요리,Q05A08,후라이드/양념치킨,I56193,치킨 전문점,50,제주특별자치도,50130,서귀포시,5013025000,대정읍,5013025022,대정읍,5013025022121270001,1,대지,2127,1,제주특별자치도 서귀포시 대정읍 하모리 2127-1,501304851190,제주특별자치도 서귀포시 대정읍 하모항구로6번길,27,,5013025022121270001000001,,제주특별자치도 서귀포시 대정읍 하모항구로6번길 27,699935,63506,,1,,126.251544889117,33.2185685671983
11973779,통닭원5900,박촌역점,Q,음식,Q05,닭/오리요리,Q05A08,후라이드/양념치킨,I56193,치킨 전문점,28,인천광역시,28245,계양구,2824571000,계양1동,2824510900,박촌동,2824510900100600003,1,대지,60,3,인천광역시 계양구 박촌동 60-3,282453154050,인천광역시 계양구 장제로,1003,,2824510900100600003114937,,인천광역시 계양구 장제로 1003,407330,21021,,1,,126.745217443592,37.5550892314192
11973795,YTK허니치킨,,Q,음식,Q05,닭/오리요리,Q05A08,후라이드/양념치킨,I56193,치킨 전문점,41,경기도,41150,의정부시,4115051000,의정부1동,4115010100,의정부동,4115010100101550001,1,대지,155,1,경기도 의정부시 의정부동 155-1,411503181052,경기도 의정부시 행복로,42,1,4115010100101550001000335,청우빌딩,경기도 의정부시 행복로 42-1,480010,11692,,1,,127.050501248373,37.7421554967465
11974034,충만치킨진접점,진접점,Q,음식,Q05,닭/오리요리,Q05A08,후라이드/양념치킨,I56193,치킨 전문점,41,경기도,41360,남양주시,4136025300,진접읍,4136025328,진접읍,4136025328110450001,1,대지,1045,1,경기도 남양주시 진접읍 금곡리 1045-1,413604391776,경기도 남양주시 진접읍 해밀예당1로216번길,19,15,4136025328110450001000001,,경기도 남양주시 진접읍 해밀예당1로216번길 19-15,472861,12059,,1,,127.202759087093,37.7188386841785
11974193,60계치킨올림픽공원역점,,Q,음식,Q05,닭/오리요리,Q05A08,후라이드/양념치킨,I56193,치킨 전문점,11,서울특별시,11710,송파구,1171056600,오륜동,1171011100,방이동,1171011100100890011,1,대지,89,11,서울특별시 송파구 방이동 89-11,117102000006,서울특별시 송파구 양재대로,1222,,1171011100100890011015454,올림픽프라자,서울특별시 송파구 양재대로 1222,138050,05648,,2,,127.131045765864,37.5157231511018
11974197,놀코치킨,,Q,음식,Q05,닭/오리요리,Q05A08,후라이드/양념치킨,I56193,치킨 전문점,31,울산광역시,31140,남구,3114062500,대현동,3114010800,야음동,3114010800105940045,1,대지,594,45,울산광역시 남구 야음동 594-45,311403170012,울산광역시 남구 대암로,94,,3114010800105940045039907,,울산광역시 남구 대암로 94,680837,44736,,1,,129.325870175712,35.5294502708313
11974284,투존치킨,,Q,음식,Q05,닭/오리요리,Q05A08,후라이드/양념치킨,I56193,치킨 전문점,31,울산광역시,31710,울주군,3171025000,온산읍,3171025032,온산읍,3171025032113440005,1,대지,1344,5,울산광역시 울주군 온산읍 덕신리 1344-5,317104319531,울산광역시 울주군 온산읍 서영남2길,24,9,3171025032113440005000002,,울산광역시 울주군 온산읍 서영남2길 24-9,689894,45003,,,,129.30498402787,35.4379148272795
11974321,용천옛날통닭,,Q,음식,Q05,닭/오리요리,Q05A08,후라이드/양념치킨,I56193,치킨 전문점,45,전라북도,45770,순창군,4577025000,순창읍,4577025022,순창읍,4577025022102130006,1,대지,213,6,전라북도 순창군 순창읍 남계리 213-6,457703278043,전라북도 순창군 순창읍 장류로,368,,4577025022002130006001006,,전라북도 순창군 순창읍 장류로 368,595803,56040,,1,,127.142400767691,35.3762654880961
11974480,한,,Q,음식,Q05,닭/오리요리,Q05A08,후라이드/양념치킨,I56193,치킨 전문점,41,경기도,41570,김포시,4157051500,김포본동,4157010100,북변동,4157010100102940002,1,대지,294,2,경기도 김포시 북변동 294-2,415703209055,경기도 김포시 북변로,8,7,4157010100102940002021205,,경기도 김포시 북변로 8-7,415831,10098,,1,,126.709603309576,37.6277416801757
11974622,치킨매니아,,Q,음식,Q05,닭/오리요리,Q05A08,후라이드/양념치킨,I56193,치킨 전문점,41,경기도,41273,안산시 단원구,4127351000,와동,4127310200,와동,4127310200108000011,1,대지,800,11,경기도 안산시 단원구 와동 800-11,412734373449,경기도 안산시 단원구 화정천동로4길,9,,4127310200108000011001449,보현공판장,경기도 안산시 단원구 화정천동로4길 9,425843,15248,,1,,126.819791425402,37.3449233637589
11974699,처갓집양념치킨,구암점,Q,음식,Q05,닭/오리요리,Q05A08,후라이드/양념치킨,I56193,치킨 전문점,48,경상남도,48127,창원시 마산회원구,4812760000,구암1동,4812710100,구암동,4812710100102780006,1,대지,278,6,경상남도 창원시 마산회원구 구암동 278-6,481274790050,경상남도 창원시 마산회원구 구암북2길,6,,4812710100102780006025471,,경상남도 창원시 마산회원구 구암북2길 6,630510,51204,,,,128.593958164125,35.2521751476097
11974746,치킨사냥,,Q,음식,Q05,닭/오리요리,Q05A08,후라이드/양념치킨,I56193,치킨 전문점,11,서울특별시,11500,강서구,1150062000,공항동,1150010800,공항동,1150010800100220056,1,대지,22,56,서울특별시 강서구 공항동 22-56,115004145181,서울특별시 강서구 공항대로3길,38,,1150010800100220207005514,,서울특별시 강서구 공항대로3길 38,157811,07619,,1,,126.810617724999,37.5631996940309
11974836,BHC치킨,신길4동점,Q,음식,Q05,닭/오리요리,Q05A08,후라이드/양념치킨,I56193,치킨 전문점,11,서울특별시,11560,영등포구,1156066000,신길4동,1156013200,신길동,1156013200149120001,1,대지,4912,1,서울특별시 영등포구 신길동 4912-1,115604154535,서울특별시 영등포구 신길로42길,32,,1156013200149120001012347,,서울특별시 영등포구 신길로42길 32,150050,07362,,1,,126.913838913699,37.5067891629681
11975010,교촌치킨노대효천점,노대효천점,Q,음식,Q05,닭/오리요리,Q05A08,후라이드/양념치킨,I56193,치킨 전문점,29,광주광역시,29155,남구,2915571000,효덕동,2915510700,노대동,2915510700108140000,1,대지,814,,광주광역시 남구 노대동 814,291553161020,광주광역시 남구 효덕로,192,,2915510700108140000000001,,광주광역시 남구 효덕로 192,503320,61744,,1,,126.900586558502,35.1021276096521
11975106,더썬치킨,안민점,Q,음식,Q05,닭/오리요리,Q05A08,후라이드/양념치킨,I56193,치킨 전문점,48,경상남도,48123,창원시 성산구,4812356000,성주동,4812311000,안민동,4812311000102380000,1,대지,238,,경상남도 창원시 성산구 안민동 238,481234784164,경상남도 창원시 성산구 안민안길21번길,15,,4812311000102380000029180,,경상남도 창원시 성산구 안민안길21번길 15,642150,51549,,1,,128.690156097079,35.1873850093254
11975137,더마니치킨강정,,Q,음식,Q05,닭/오리요리,Q05A08,후라이드/양념치킨,I56193,치킨 전문점,42,강원도,42830,양양군,4283025000,양양읍,4283025029,양양읍,4283025029104330009,1,대지,433,9,강원도 양양군 양양읍 조산리 433-9,428304505216,강원도 양양군 양양읍 해맞이길,95,21,4283025029104330009011996,,강원도 양양군 양양읍 해맞이길 95-21,215801,25015,,1,,128.636571965533,38.1132961475838
11975450,바른치킨,춘천석사점,Q,음식,Q05,닭/오리요리,Q05A08,후라이드/양념치킨,I56193,치킨 전문점,42,강원도,42110,춘천시,4211065000,석사동,4211012400,석사동,4211012400108880001,1,대지,888,1,강원도 춘천시 석사동 888-1,421103218041,강원도 춘천시 퇴계농공로,11,,4211012400108880001055183,,강원도 춘천시 퇴계농공로 11,200972,24415,,,,127.745067134932,37.8520178307441
11975465,또봉이통닭,,Q,음식,Q05,닭/오리요리,Q05A08,후라이드/양념치킨,I56193,치킨 전문점,30,대전광역시,30200,유성구,3020052000,진잠동,3020010200,교촌동,3020010200106240022,1,대지,624,22,대전광역시 유성구 교촌동 624-22,302004301420,대전광역시 유성구 진잠로149번길,5,,3020010200106240022019156,,대전광역시 유성구 진잠로149번길 5,305250,34225,,1,,127.317837119251,36.3038425837577
